CVEGEO,Población total 2010,Población de 0 a 14 años 2010,Población de 65 años y más 2010,Población femenina 2010,Población femenina de 0 a 14 años 2010,Población femenina de 15 años y más 2010,Población femenina de 65 años y más 2010,Población masculina 2010,Población masculina de 0 a 14 años 2010,Población masculina de 15 años y más 2010,Población masculina de 65 años y más 2010,Población de 15 años y más 2010,Población total 2015,Población de 15 años y más 2015,Población de 65 años y más 2015,Población femenina 2015,Población femenina de 0 a 14 años 2015,Población femenina de 15 años y más 2015,Población femenina de 65 años y más 2015,Población masculina 2015,Población masculina de 0 a 14 años 2015,Población masculina de 15 años y más 2015,Población de 0 a 14 años 2015,Población masculina de 65 años y más 2015,NOM_ENT,NOM_MUN,LAT_DEC,LON_DEC,Ganador 2010,Ganador 2015
01001,797010.0,238193.0,40309.0,410581.0,117108.0,291830.0,22738.0,386429.0,121085.0,263741.0,17571.0,555571.0,877190,631540,52170,451459,209354,329653,29086,425731,123844,301887,245650,23084,Aguascalientes,Aguascalientes,21.879823,-102.296047,PAN,NA
01002,45492.0,16209.0,2627.0,22980.0,7941.0,15022.0,1293.0,22512.0,8268.0,14228.0,1334.0,29250.0,46464,31049,2958,23719,10992,16041,1542,22745,7737,15008,15415,1416,Aguascalientes,Asientos,22.238317,-102.089275,PAN,NA
01003,54136.0,17800.0,4034.0,27886.0,8675.0,19182.0,2052.0,26250.0,9125.0,17100.0,1982.0,36282.0,56048,38716,4722,28750,13542,20203,2369,27298,8785,18513,17332,2353,Aguascalientes,Calvillo,21.846907,-102.718751,PRI,NA
01004,15042.0,5255.0,844.0,7716.0,2616.0,5092.0,426.0,7326.0,2639.0,4682.0,418.0,9774.0,15577,10487,998,8025,3647,5436,519,7552,2501,5051,5090,479,Aguascalientes,Cosío,22.366409,-102.300044,PRI,NA
01005,99590.0,35746.0,3640.0,50500.0,17573.0,32742.0,1830.0,49090.0,18173.0,30738.0,1810.0,63480.0,120405,80580,4820,60270,29153,40859,2397,60135,20414,39721,39825,2423,Aguascalientes,Jesús María,21.961273,-102.343416,PRI,NA
01006,41862.0,14373.0,2169.0,21692.0,7229.0,14427.0,1155.0,20170.0,7144.0,12992.0,1014.0,27419.0,46473,31120,2440,23983,11418,16263,1314,22490,7633,14857,15353,1126,Aguascalientes,Pabellón de Arteaga,22.149202,-102.276542,PRI,NA
01007,49156.0,17097.0,2520.0,25089.0,8399.0,16659.0,1282.0,24067.0,8698.0,15340.0,1238.0,31999.0,53866,35706,2905,27173,12740,18582,1597,26693,9569,17124,18160,1308,Aguascalientes,Rincón de Romos,22.229233,-102.323069,PRI,NA
01008,8443.0,2899.0,573.0,4400.0,1476.0,2898.0,288.0,4043.0,1423.0,2597.0,285.0,5495.0,8896,5854,625,4620,2120,3118,310,4276,1540,2736,3042,315,Aguascalientes,San José de Gracia,22.150216,-102.415634,PRI,NA
01009,19668.0,6947.0,1205.0,10068.0,3484.0,6582.0,584.0,9600.0,3463.0,6134.0,621.0,12716.0,20926,14031,1524,10729,4986,7286,782,10197,3452,6745,6895,742,Aguascalientes,Tepezalá,22.224228,-102.166971,PAN,NA
01010,18828.0,6444.0,1085.0,9255.0,3055.0,6190.0,537.0,9573.0,3389.0,6177.0,548.0,12367.0,20245,13703,1371,10263,4775,7090,715,9982,3369,6613,6542,656,Aguascalientes,El Llano,21.918869,-101.965307,PRI,NA
01011,35769.0,13274.0,1341.0,18191.0,6553.0,11577.0,685.0,17578.0,6721.0,10797.0,656.0,22374.0,46454,30183,1586,23462,11447,15495,793,22992,8304,14688,16271,793,Aguascalientes,San Francisco de los Romo,22.072393,-102.272678,PRI,NA
02001,466814.0,133843.0,23692.0,231684.0,65965.0,164299.0,12192.0,235130.0,67878.0,165826.0,11500.0,330125.0,486639,356311,29290,243459,117441,179948,15803,243180,66817,176363,130328,13487,Baja California,Ensenada,31.808944,-116.595134,NA,NA
02002,936826.0,257766.0,49e3,463623.0,126250.0,327927.0,26297.0,473203.0,131516.0,332191.0,22703.0,660118.0,988417,729733,61569,497523,240001,368226,33208,490894,129387,361507,258684,28361,Baja California,Mexicali,32.641176,-115.475579,NA,NA
02003,101079.0,29143.0,4759.0,47756.0,14322.0,33123.0,2366.0,53323.0,14821.0,38090.0,2393.0,71213.0,102406,74276,6384,51139,24437,37354,3258,51267,14345,36922,28130,3126,Baja California,Tecate,32.572679,-116.62655,NA,NA
02004,1559683.0,455181.0,59287.0,776030.0,224085.0,546350.0,32281.0,783653.0,231096.0,546846.0,27006.0,1093196.0,1641570,1197950,78306,824832,388685,606277,42409,816738,225065,591673,443620,35897,Baja California,Tijuana,32.532461,-117.018913,NA,NA
02005,90668.0,25953.0,3887.0,44367.0,12728.0,29855.0,1836.0,46301.0,13225.0,31252.0,2051.0,61107.0,96734,69982,5846,48472,23962,35087,2825,48262,13367,34895,26752,3021,Baja California,Playas de Rosarito,32.363684,-117.054459,NA,NA
03001,70816.0,20235.0,4370.0,34380.0,9762.0,24556.0,2153.0,36436.0,10473.0,25897.0,2217.0,50453.0,72564,53290,5631,36151,17873,26567,2785,36413,9690,26723,19274,2846,Baja California Sur,Comondú,25.034434,-111.673218,NA,PAN
03002,59114.0,17342.0,3257.0,28497.0,8560.0,19715.0,1574.0,30617.0,8782.0,21615.0,1683.0,41330.0,60171,43303,4237,29057,14598,20838,2070,31114,8649,22465,16868,2167,Baja California Sur,Mulegé,27.336868,-112.268275,NA,PAN
03003,251871.0,64202.0,13394.0,125474.0,31655.0,92144.0,7080.0,126397.0,32547.0,92168.0,6314.0,184312.0,272711,206308,17981,138728,63762,105008,10001,133983,32683,101300,66403,7980,Baja California Sur,La Paz,24.142222,-110.310833,NA,PAN
03008,238487.0,72151.0,5411.0,115386.0,35467.0,77358.0,2698.0,123101.0,36684.0,83838.0,2713.0,161196.0,287671,205695,9747,139690,68029,98471,5118,147981,40757,107224,81976,4629,Baja California Sur,Los Cabos,23.061591,-109.694749,NA,0
03009,16738.0,4542.0,787.0,7856.0,2212.0,5509.0,391.0,8882.0,2330.0,6417.0,396.0,11926.0,18912,13930,1411,9266,4648,6820,726,9646,2536,7110,4982,685,Baja California Sur,Loreto,26.012778,-111.343333,NA,0
04001,52890.0,14554.0,4064.0,26818.0,7223.0,19500.0,2011.0,26072.0,7331.0,18647.0,2053.0,38147.0,56537,41690,4577,28879,13288,21519,2371,27658,7487,20171,14847,2206,Campeche,Calkiní,20.371226,-90.050739,NA,PRD
04002,259005.0,65823.0,16092.0,133444.0,32442.0,100376.0,8725.0,125561.0,33381.0,91553.0,7367.0,191929.0,283025,212722,20016,147620,68486,112327,10710,135405,35010,100395,70303,9306,Campeche,Campeche,19.844814,-90.539649,NA,PRD
04003,221094.0,61399.0,9334.0,110777.0,30243.0,78471.0,4750.0,110317.0,31156.0,77097.0,4584.0,155568.0,248303,185503,13641,126268,57650,94545,6909,122035,31077,90958,62800,6732,Campeche,Carmen,18.637789,-91.83645,NA,PAN
04004,83021.0,25493.0,4975.0,41261.0,12525.0,28559.0,2188.0,41760.0,12968.0,28611.0,2787.0,57170.0,90244,63582,6209,45319,21171,32004,2866,44925,13347,31578,26662,3343,Campeche,Champotón,19.356219,-90.723891,NA,PRD
04005,28306.0,8131.0,1949.0,14213.0,3971.0,10232.0,945.0,14093.0,4160.0,9920.0,1004.0,20152.0,31230,21994,2144,15760,7502,11173,1008,15470,4649,10821,9236,1136,Campeche,Hecelchakán,20.176966,-90.134517,NA,PRD
04006,37777.0,12815.0,2338.0,18471.0,6240.0,12227.0,1036.0,19306.0,6575.0,12725.0,1302.0,24952.0,40100,26873,2640,19729,9564,13268,1187,20371,6766,13605,13227,1453,Campeche,Hopelchén,19.745548,-89.845044,NA,PRD
04007,8352.0,2492.0,681.0,4122.0,1209.0,2894.0,322.0,4230.0,1283.0,2926.0,359.0,5820.0,8971,6362,779,4449,2141,3174,363,4522,1334,3188,2609,416,Campeche,Palizada,18.253598,-92.090902,NA,PAN
04008,9736.0,2717.0,680.0,4734.0,1291.0,3441.0,309.0,5002.0,1426.0,3575.0,371.0,7016.0,10665,7796,801,5246,2479,3878,372,5419,1501,3918,2869,429,Campeche,Tenabo,20.039677,-90.225763,NA,PRD
04009,54184.0,18079.0,2868.0,27375.0,8887.0,18420.0,1267.0,26809.0,9192.0,17550.0,1601.0,35970.0,58553,40416,3686,29667,13809,20955,1759,28886,9425,19461,18137,1927,Campeche,Escárcega,18.604315,-90.732001,NA,PRD
04010,26882.0,10609.0,1211.0,13235.0,5213.0,8006.0,472.0,13647.0,5396.0,8235.0,739.0,16241.0,28424,18525,1505,13915,6836,9198,593,14509,5182,9327,9899,912,Campeche,Calakmul,18.505371,-89.397276,NA,PAN
04011,41194.0,14426.0,2308.0,20270.0,7073.0,13081.0,958.0,20924.0,7353.0,13468.0,1350.0,26549.0,43879,29041,2623,21803,10601,14355,1167,22076,7390,14686,14838,1456,Campeche,Candelaria,18.183451,-91.046294,NA,0
05001,1070.0,243.0,154.0,539.0,129.0,410.0,72.0,531.0,114.0,417.0,82.0,827.0,1015,789,151,504,253,393,72,511,115,396,226,79,Coahuila de Zaragoza,Abasolo,27.181944,-101.426389,NA,NA
05002,136755.0,44339.0,4963.0,68405.0,21808.0,45644.0,2599.0,68350.0,22531.0,44863.0,2364.0,90507.0,147809,103758,6635,74249,35464,52373,3627,73560,22175,51385,44051,3008,Coahuila de Zaragoza,Acuña,29.330006,-100.978258,NA,NA
05003,22675.0,6477.0,1540.0,11561.0,3213.0,8111.0,834.0,11114.0,3264.0,7616.0,706.0,15727.0,22654,16243,1629,11451,5681,8337,860,11203,3297,7906,6411,769,Coahuila de Zaragoza,Allende,28.347222,-100.854167,NA,NA
05004,22544.0,6650.0,1787.0,11004.0,3300.0,7592.0,821.0,11540.0,3350.0,8080.0,966.0,15672.0,23271,16530,2065,11545,5273,8175,943,11726,3371,8355,6741,1122,Coahuila de Zaragoza,Arteaga,25.450621,-100.849623,NA,NA
05005,1808.0,494.0,229.0,869.0,226.0,634.0,106.0,939.0,268.0,663.0,123.0,1297.0,1720,1247,231,817,416,610,111,903,266,637,473,120,Coahuila de Zaragoza,Candela,26.840278,-100.663889,NA,NA
05006,25892.0,7562.0,1668.0,12947.0,3754.0,9158.0,847.0,12945.0,3808.0,9102.0,821.0,18260.0,28068,20149,1874,14165,6721,10184,926,13903,3938,9965,7919,948,Coahuila de Zaragoza,Castaños,26.785278,-101.430556,NA,NA
05007,13013.0,3982.0,1065.0,6448.0,1939.0,4497.0,536.0,6565.0,2043.0,4506.0,529.0,9003.0,13546,9499,1111,6753,3219,4768,553,6793,2062,4731,4047,558,Coahuila de Zaragoza,Cuatro Ciénegas,26.985833,-102.066667,NA,NA
05008,2901.0,818.0,265.0,1426.0,387.0,1033.0,124.0,1475.0,431.0,1040.0,141.0,2073.0,3077,2192,288,1520,767,1104,127,1557,469,1088,885,161,Coahuila de Zaragoza,Escobedo,27.234722,-101.4125,NA,NA
05009,55676.0,17364.0,3385.0,27937.0,8448.0,19443.0,1661.0,27739.0,8916.0,18779.0,1724.0,38222.0,58360,41568,3963,29497,14083,21264,1903,28863,8559,20304,16792,2060,Coahuila de Zaragoza,Francisco I. Madero,25.775,-103.273056,NA,NA
05010,75215.0,22216.0,4142.0,37654.0,10937.0,26563.0,2123.0,37561.0,11279.0,26131.0,2019.0,52694.0,80991,58336,4857,40514,19395,29374,2448,40477,11515,28962,22655,2409,Coahuila de Zaragoza,Frontera,26.926111,-101.449444,NA,NA
05011,11682.0,3392.0,1226.0,5611.0,1671.0,3930.0,546.0,6071.0,1721.0,4337.0,680.0,8267.0,12471,8836,1315,6032,3036,4264,584,6439,1867,4572,3635,731,Coahuila de Zaragoza,General Cepeda,25.379908,-101.479292,NA,NA
05012,2091.0,564.0,180.0,976.0,277.0,631.0,77.0,1115.0,287.0,763.0,103.0,1394.0,1697,1227,182,806,420,580,79,891,244,647,470,103,Coahuila de Zaragoza,Guerrero,28.308418,-100.378726,NA,NA
05013,1852.0,594.0,74.0,897.0,283.0,518.0,29.0,955.0,311.0,548.0,45.0,1066.0,1565,980,78,752,399,484,28,813,317,496,585,50,Coahuila de Zaragoza,Hidalgo,27.791681,-99.876055,NA,NA
05014,9935.0,2975.0,750.0,4894.0,1455.0,3403.0,352.0,5041.0,1520.0,3484.0,398.0,6887.0,10243,7411,891,5089,2446,3663,420,5154,1406,3748,2832,471,Coahuila de Zaragoza,Jiménez,29.070308,-100.674228,NA,NA
05015,1599.0,445.0,137.0,772.0,218.0,550.0,58.0,827.0,227.0,597.0,79.0,1147.0,1574,1166,144,752,387,559,64,822,215,607,408,80,Coahuila de Zaragoza,Juárez,27.606506,-100.72712,NA,NA
05016,1835.0,476.0,241.0,894.0,228.0,664.0,106.0,941.0,248.0,691.0,135.0,1355.0,1773,1332,233,868,421,656,104,905,229,676,441,129,Coahuila de Zaragoza,Lamadrid,27.048494,-101.793599,NA,NA
05017,107160.0,33594.0,6314.0,53807.0,16711.0,36878.0,3068.0,53353.0,16883.0,36247.0,3246.0,73125.0,108950,76547,6762,54809,26172,38757,3300,54141,16351,37790,32403,3462,Coahuila de Zaragoza,Matamoros,25.528136,-103.230384,NA,NA
05018,216206.0,59311.0,12620.0,108805.0,29226.0,78715.0,6683.0,107401.0,30085.0,76437.0,5937.0,155152.0,231107,169788,16470,117387,55278,87444,9168,113720,31376,82344,61319,7302,Coahuila de Zaragoza,Monclova,26.901242,-101.417224,NA,NA
05019,8207.0,2582.0,550.0,4112.0,1279.0,2812.0,275.0,4095.0,1303.0,2771.0,275.0,5583.0,8599,6109,735,4220,2210,3033,391,4379,1303,3076,2490,344,Coahuila de Zaragoza,Morelos,28.410104,-100.886631,NA,NA
05020,66834.0,19571.0,4852.0,33369.0,9584.0,23686.0,2472.0,33465.0,9987.0,23373.0,2380.0,47059.0,69102,49890,5400,34181,16691,24754,2739,34921,9785,25136,19212,2661,Coahuila de Zaragoza,Múzquiz,27.87755,-101.516518,NA,NA
05021,6335.0,1672.0,532.0,3149.0,855.0,2290.0,242.0,3186.0,817.0,2366.0,290.0,4656.0,6614,4887,627,3328,1564,2391,295,3286,790,2496,1727,332,Coahuila de Zaragoza,Nadadores,27.029031,-101.592023,NA,NA
05022,27928.0,9070.0,1252.0,13691.0,4455.0,9057.0,600.0,14237.0,4615.0,9440.0,652.0,18497.0,30698,21373,1584,15085,7388,10586,751,15613,4826,10787,9325,833,Coahuila de Zaragoza,Nava,28.421875,-100.767554,NA,NA
05023,10991.0,3513.0,770.0,5339.0,1763.0,3527.0,353.0,5652.0,1750.0,3855.0,417.0,7382.0,11671,8030,941,5631,2814,3862,432,6040,1872,4168,3641,509,Coahuila de Zaragoza,Ocampo,27.311215,-102.397405,NA,NA
05024,45401.0,13144.0,3325.0,22339.0,6272.0,15812.0,1608.0,23062.0,6872.0,15931.0,1717.0,31743.0,44799,32479,3448,22002,10683,16099,1695,22797,6417,16380,12320,1753,Coahuila de Zaragoza,Parras,25.437381,-102.184169,NA,NA
05025,152806.0,46634.0,7494.0,76402.0,23003.0,52064.0,4071.0,76404.0,23631.0,51421.0,3423.0,103485.0,163595,114783,8791,82020,38565,58314,4743,81575,25106,56469,48812,4048,Coahuila de Zaragoza,Piedras Negras,28.708093,-100.528441,NA,NA
05026,3473.0,1015.0,320.0,1699.0,491.0,1208.0,149.0,1774.0,524.0,1249.0,171.0,2457.0,3304,2392,348,1590,782,1154,168,1714,476,1238,912,180,Coahuila de Zaragoza,Progreso,27.428978,-100.987233,NA,NA
05027,75461.0,24058.0,2880.0,37159.0,11859.0,24777.0,1400.0,38302.0,12199.0,25586.0,1480.0,50363.0,92828,65005,3845,45553,22471,32116,1911,47275,14386,32889,27823,1934,Coahuila de Zaragoza,Ramos Arizpe,25.543234000000002,-100.950782,NA,NA
05028,60847.0,17080.0,4202.0,30600.0,8321.0,21871.0,2268.0,30247.0,8759.0,21083.0,1934.0,42954.0,63522,46435,4713,31666,15632,23442,2473,31856,8863,22993,17087,2240,Coahuila de Zaragoza,Sabinas,27.848888,-101.119989,NA,NA
05029,2314.0,631.0,177.0,1139.0,329.0,810.0,84.0,1175.0,302.0,873.0,93.0,1683.0,2360,1713,193,1182,548,844,88,1178,309,869,647,105,Coahuila de Zaragoza,Sacramento,27.004439,-101.725036,NA,NA
05030,725123.0,207382.0,36358.0,365757.0,101718.0,258898.0,19790.0,359366.0,105664.0,248557.0,16568.0,507455.0,807537,581499,47211,407167,194788,296223,25360,400370,115094,285276,226038,21851,Coahuila de Zaragoza,Saltillo,25.421665,-100.999721,NA,NA
05031,22149.0,5855.0,1562.0,11105.0,2865.0,8131.0,800.0,11044.0,2990.0,7943.0,762.0,16074.0,23587,17621,1978,11904,5744,8948,976,11683,3010,8673,5966,1002,Coahuila de Zaragoza,San Buenaventura,27.060257,-101.550029,NA,NA
05032,41649.0,10733.0,3746.0,21147.0,5284.0,15489.0,2071.0,20502.0,5449.0,14680.0,1675.0,30169.0,43232,32307,4389,22206,10601,16771,2419,21026,5490,15536,10925,1970,Coahuila de Zaragoza,San Juan de Sabinas,27.92939,-101.303293,NA,NA
05033,102650.0,32008.0,7305.0,51257.0,15725.0,35480.0,3565.0,51393.0,16283.0,35048.0,3740.0,70528.0,106142,74774,8438,53857,25443,38248,4206,52285,15759,36526,31368,4232,Coahuila de Zaragoza,San Pedro,25.757778,-102.983157,NA,NA
05034,6375.0,2033.0,329.0,3069.0,978.0,2088.0,139.0,3306.0,1055.0,2247.0,190.0,4335.0,6988,4791,396,3404,1641,2286,173,3584,1079,2505,2197,223,Coahuila de Zaragoza,Sierra Mojada,27.286877,-103.701457,NA,NA
05035,639629.0,176154.0,36903.0,327494.0,86699.0,233337.0,20687.0,312135.0,89455.0,215200.0,16216.0,448537.0,679288,497293,48903,349356,163419,258781,27069,329932,91420,238512,181995,21834,Coahuila de Zaragoza,Torreón,25.541753,-103.453061,NA,NA
05036,21319.0,6967.0,1588.0,10557.0,3435.0,7116.0,736.0,10762.0,3532.0,7221.0,852.0,14337.0,21549,14926,1749,10646,5116,7395,804,10903,3372,7531,6623,945,Coahuila de Zaragoza,Viesca,25.343605,-102.80635,NA,NA
05037,6289.0,1864.0,512.0,3072.0,906.0,2117.0,258.0,3217.0,958.0,2209.0,254.0,4326.0,6352,4519,537,3099,1481,2192,271,3253,926,2327,1833,266,Coahuila de Zaragoza,Villa Unión,28.220498,-100.725155,NA,NA
05038,12702.0,3713.0,1020.0,6292.0,1844.0,4433.0,517.0,6410.0,1869.0,4525.0,503.0,8958.0,13257,9355,1122,6696,3099,4732,574,6561,1938,4623,3902,548,Coahuila de Zaragoza,Zaragoza,28.487043,-100.917622,NA,NA
06001,28695.0,8482.0,2321.0,14239.0,4093.0,10118.0,1179.0,14456.0,4389.0,10038.0,1142.0,20156.0,29599,21083,2687,14831,7219,10633,1357,14768,4318,10450,8516,1330,Colima,Armería,18.937073,-103.964997,NA,PAN
06002,146904.0,35893.0,11621.0,75348.0,17637.0,56371.0,6309.0,71556.0,18256.0,51955.0,5312.0,108326.0,150673,115706,14744,77890,35738,60907,8296,72783,17984,54799,34967,6448,Colima,Colima,19.242922,-103.728119,NA,PRI
06003,20888.0,5774.0,1773.0,10345.0,2772.0,7534.0,921.0,10543.0,3002.0,7500.0,852.0,15034.0,21544,15869,1892,10807,5286,7991,1011,10737,2859,7878,5675,881,Colima,Comala,19.323199,-103.758801,NA,PAN
06004,19385.0,5361.0,1555.0,9676.0,2640.0,6967.0,739.0,9709.0,2721.0,6918.0,816.0,13885.0,20198,14904,1798,10023,4815,7440,904,10175,2711,7464,5294,894,Colima,Coquimatlán,19.200979,-103.810541,NA,PAN
06005,27107.0,7088.0,2413.0,13624.0,3486.0,9957.0,1230.0,13483.0,3602.0,9698.0,1183.0,19655.0,30198,22475,2762,15004,7162,11297,1380,15194,4016,11178,7723,1382,Colima,Cuauhtémoc,19.328774,-103.601861,NA,PAN
06006,5300.0,1422.0,543.0,2621.0,651.0,1957.0,271.0,2679.0,771.0,1895.0,272.0,3852.0,5527,4111,568,2753,1326,2075,289,2774,738,2036,1416,279,Colima,Ixtlahuacán,19.001184,-103.738593,NA,PAN
06007,161420.0,45136.0,7849.0,80413.0,22243.0,57121.0,4045.0,81007.0,22893.0,57058.0,3804.0,114179.0,184541,133951,9648,92179,43477,67424,5296,92362,25835,66527,50590,4352,Colima,Manzanillo,19.053206,-104.316381,NA,PRI
06008,8174.0,2319.0,652.0,3978.0,1146.0,2822.0,312.0,4196.0,1173.0,3010.0,340.0,5832.0,8985,6418,782,4296,2164,3040,369,4689,1311,3378,2567,413,Colima,Minatitlán,19.38611,-104.049637,NA,PAN
06009,112726.0,34111.0,6650.0,55922.0,16665.0,39155.0,3309.0,56804.0,17446.0,39254.0,3341.0,78409.0,123191,86673,7762,61876,28991,44110,3797,61315,18752,42563,36518,3965,Colima,Tecomán,18.910503,-103.873548,NA,PAN
06010,119956.0,32019.0,4996.0,61599.0,15555.0,44962.0,2774.0,58357.0,16464.0,40813.0,2222.0,85775.0,136779,102502,6468,70785,32863,54349,3405,65994,17841,48153,34277,3063,Colima,Villa de Álvarez,19.264776,-103.736759,NA,PAN
07001,16814.0,5981.0,916.0,8378.0,2929.0,5449.0,410.0,8436.0,3052.0,5383.0,506.0,10832.0,18082,11638,1130,9000,4301,5915,487,9082,3359,5723,6444,643,Chiapas,Acacoyagua,15.340965,-92.674617,NA,NA
07002,28947.0,9039.0,1864.0,14474.0,4352.0,10116.0,883.0,14473.0,4687.0,9781.0,981.0,19897.0,31424,21734,2270,16036,7383,11128,1017,15388,4782,10606,9690,1253,Chiapas,Acala,16.551674,-92.807508,NA,NA
07003,27580.0,8597.0,1930.0,13689.0,4150.0,9534.0,902.0,13891.0,4447.0,9439.0,1028.0,18973.0,28380,19654,2105,14241,6786,9999,1006,14139,4484,9655,8726,1099,Chiapas,Acapetahua,15.282838,-92.689132,NA,NA
07004,29865.0,10739.0,955.0,14846.0,5247.0,8020.0,452.0,15019.0,5492.0,7945.0,503.0,15965.0,32872,20270,1331,16549,7542,10343,633,16323,6396,9927,12602,698,Chiapas,Altamirano,16.73592,-92.038594,NA,NA
07005,21275.0,8507.0,939.0,10484.0,4204.0,6280.0,434.0,10791.0,4303.0,6487.0,505.0,12767.0,19348,12794,1006,9619,4397,6377,471,9729,3312,6417,6554,535,Chiapas,Amatán,17.372848,-92.819123,NA,NA
07006,29547.0,10751.0,1672.0,15100.0,5358.0,9722.0,796.0,14447.0,5393.0,9036.0,876.0,18758.0,30732,20160,2100,15864,7145,10585,1001,14868,5293,9575,10572,1099,Chiapas,Amatenango de la Frontera,15.435011,-92.115158,NA,NA
07007,8728.0,3237.0,338.0,4545.0,1622.0,2739.0,175.0,4183.0,1615.0,2388.0,163.0,5127.0,9913,6104,442,5172,2309,3274,238,4741,1911,2830,3809,204,Chiapas,Amatenango del Valle,16.528501,-92.435491,NA,NA
07008,26628.0,9697.0,1231.0,13269.0,4660.0,8601.0,574.0,13359.0,5037.0,8314.0,657.0,16915.0,28162,18456,1564,14295,6784,9470,757,13867,4881,8986,9706,807,Chiapas,Angel Albino Corzo,15.872644,-92.72508,NA,NA
07009,40042.0,11624.0,3245.0,20508.0,5672.0,14820.0,1737.0,19534.0,5952.0,13562.0,1508.0,28382.0,40114,28824,3465,20708,9393,15102,1869,19406,5684,13722,11290,1596,Chiapas,Arriaga,16.236065,-93.899473,NA,NA
07010,7623.0,3017.0,454.0,3767.0,1461.0,2299.0,239.0,3856.0,1556.0,2294.0,215.0,4593.0,7494,4671,499,3752,1770,2413,240,3742,1484,2258,2823,259,Chiapas,Bejucal de Ocampo,15.455393,-92.158407,NA,NA
07011,19281.0,7203.0,1146.0,9759.0,3572.0,6177.0,554.0,9522.0,3631.0,5886.0,592.0,12063.0,20142,13069,1437,10069,4615,6617,649,10073,3621,6452,7073,788,Chiapas,Bella Vista,15.582928,-92.244765,NA,NA
07012,43179.0,14817.0,1815.0,21617.0,7288.0,13935.0,891.0,21562.0,7529.0,13640.0,924.0,27575.0,51722,34008,2443,26083,12119,17492,1238,25639,9123,16516,17714,1205,Chiapas,Berriozábal,16.800321,-93.273271,NA,NA
07013,30642.0,12333.0,1027.0,15423.0,6047.0,9372.0,503.0,15219.0,6286.0,8933.0,524.0,18305.0,34997,21235,1315,17895,8315,10985,668,17102,6852,10250,13762,647,Chiapas,Bochil,16.996383,-92.890219,NA,NA
07014,18559.0,7455.0,594.0,9469.0,3721.0,5457.0,296.0,9090.0,3734.0,5064.0,298.0,10521.0,22606,13300,808,11695,5397,7024,416,10911,4635,6276,9306,392,Chiapas,El Bosque,17.06221,-92.721409,NA,NA
07015,43811.0,14702.0,2912.0,22394.0,7274.0,15103.0,1457.0,21417.0,7428.0,13977.0,1455.0,29080.0,45594,31267,3462,23372,10749,16192,1643,22222,7147,15075,14327,1819,Chiapas,Cacahoatán,14.989789,-92.16811,NA,NA
07016,17140.0,4699.0,1404.0,8393.0,2324.0,6051.0,665.0,8747.0,2375.0,6352.0,739.0,12403.0,17065,12437,1691,8543,4065,6212,779,8522,2297,6225,4628,912,Chiapas,Catazajá,17.728321,-92.016366,NA,NA
07017,78114.0,23766.0,4819.0,38875.0,11660.0,26958.0,2470.0,39239.0,12106.0,26880.0,2349.0,53838.0,84455,58752,6353,42951,20097,30351,3127,41504,13103,28401,25703,3226,Chiapas,Cintalapa,16.698682,-93.720428,NA,NA
07018,8444.0,3122.0,481.0,4244.0,1555.0,2686.0,231.0,4200.0,1567.0,2631.0,250.0,5317.0,9210,5891,575,4728,2105,3051,253,4482,1642,2840,3319,322,Chiapas,Coapilla,17.130791,-93.159022,NA,NA
07019,141013.0,43580.0,7512.0,73322.0,21667.0,50998.0,4016.0,67691.0,21913.0,45123.0,3496.0,96121.0,153448,107519,8467,80904,35751,57733,4374,72544,22758,49786,45929,4093,Chiapas,Comitán de Domínguez,16.252461,-92.135835,NA,NA
07020,44082.0,14769.0,2434.0,21962.0,7243.0,14681.0,1173.0,22120.0,7526.0,14561.0,1261.0,29242.0,46405,31382,2918,23022,10828,15719,1414,23383,7720,15663,15023,1504,Chiapas,La Concordia,16.116716,-92.687934,NA,NA
07021,21050.0,6945.0,1339.0,10675.0,3494.0,7159.0,645.0,10375.0,3451.0,6900.0,694.0,14059.0,21800,14806,1587,11227,4974,7764,784,10573,3531,7042,6994,803,Chiapas,Copainalá,17.093611,-93.210556,NA,NA
07022,14027.0,6488.0,338.0,7108.0,3270.0,3816.0,172.0,6919.0,3218.0,3681.0,166.0,7497.0,16803,9137,416,8522,4002,4679,216,8281,3823,4458,7666,200,Chiapas,Chalchihuitán,16.963405,-92.618395,NA,NA
07023,76941.0,33136.0,3177.0,41386.0,16779.0,24427.0,1832.0,35555.0,16357.0,19018.0,1345.0,43445.0,87332,50504,3765,47179,20596,28507,2165,40153,18156,21997,36828,1600,Chiapas,Chamula,16.7875,-92.689167,NA,NA
07024,10817.0,5441.0,446.0,5441.0,2727.0,2698.0,220.0,5376.0,2714.0,2647.0,226.0,5345.0,12181,6187,487,6135,2724,3132,253,6046,2991,3055,5994,234,Chiapas,Chanal,16.660062,-92.259942,NA,NA
07025,7332.0,2686.0,405.0,3672.0,1334.0,2338.0,177.0,3660.0,1352.0,2307.0,228.0,4645.0,7644,5125,527,3801,1756,2594,264,3843,1312,2531,2519,263,Chiapas,Chapultenango,17.340401,-93.130078,NA,NA
07026,36111.0,15773.0,1157.0,18291.0,7770.0,10230.0,594.0,17820.0,8003.0,9529.0,563.0,19759.0,39648,22267,1211,20175,9398,11566,634,19473,8772,10701,17381,577,Chiapas,Chenalhó,16.894277,-92.626148,NA,NA
07027,87603.0,27264.0,4630.0,44302.0,13531.0,30631.0,2298.0,43301.0,13733.0,29429.0,2332.0,60060.0,100751,70104,6099,51872,24002,36364,2947,48879,15139,33740,30647,3152,Chiapas,Chiapa de Corzo,16.707958,-93.015959,NA,NA
07028,5405.0,1598.0,376.0,2624.0,770.0,1854.0,168.0,2781.0,828.0,1953.0,208.0,3807.0,5899,4089,425,2937,1348,2066,182,2962,939,2023,1810,243,Chiapas,Chiapilla,16.570493,-92.720025,NA,NA
07029,5018.0,1633.0,287.0,2502.0,798.0,1694.0,136.0,2516.0,835.0,1672.0,151.0,3366.0,5000,3424,331,2528,1180,1753,157,2472,801,1671,1576,174,Chiapas,Chicoasén,16.967255,-93.105235,NA,NA
07030,31515.0,11182.0,1583.0,15800.0,5510.0,10282.0,735.0,15715.0,5672.0,10038.0,848.0,20320.0,34744,22909,2231,17538,8030,11707,1067,17206,6004,11202,11835,1164,Chiapas,Chicomuselo,15.744936,-92.283287,NA,NA
07031,111554.0,49202.0,3280.0,56349.0,24419.0,30810.0,1512.0,55205.0,24783.0,29299.0,1768.0,60109.0,127914,72673,4345,65348,30327,37619,2014,62566,27512,35054,55241,2331,Chiapas,Chilón,17.105491,-92.271528,NA,NA
07032,30068.0,10727.0,1844.0,15282.0,5312.0,9966.0,890.0,14786.0,5415.0,9368.0,954.0,19334.0,31822,21013,2290,16050,7407,10826,1148,15772,5585,10187,10809,1142,Chiapas,Escuintla,15.319269,-92.658558,NA,NA
07033,7e3,2907.0,265.0,3460.0,1455.0,2005.0,110.0,3540.0,1452.0,2088.0,155.0,4093.0,7430,4735,348,3688,1835,2373,140,3742,1380,2362,2695,208,Chiapas,Francisco León,NA,NA,NA,NA
07034,67012.0,22349.0,3426.0,34381.0,11115.0,23257.0,1670.0,32631.0,11234.0,21386.0,1756.0,44643.0,73436,49075,4374,37767,16993,25930,2130,35669,12524,23145,24361,2244,Chiapas,Frontera Comalapa,15.660164,-92.14105,NA,NA
07035,12665.0,4028.0,792.0,6436.0,1960.0,4474.0,409.0,6229.0,2068.0,4160.0,383.0,8634.0,14416,9752,946,7429,3489,5133,497,6987,2368,4619,4664,449,Chiapas,Frontera Hidalgo,14.777838,-92.175983,NA,NA
07036,7272.0,3021.0,428.0,3623.0,1469.0,2152.0,225.0,3649.0,1552.0,2092.0,203.0,4244.0,7057,4176,474,3617,1600,2212,250,3440,1476,1964,2881,224,Chiapas,La Grandeza,15.51013,-92.22588,NA,NA
07037,33444.0,10670.0,2136.0,17089.0,5248.0,11830.0,1055.0,16355.0,5422.0,10929.0,1081.0,22759.0,35017,24707,2502,17975,8174,12799,1235,17042,5134,11908,10310,1267,Chiapas,Huehuetán,15.01852,-92.384181,NA,NA
07038,21507.0,8709.0,1092.0,10908.0,4318.0,6478.0,536.0,10599.0,4391.0,6096.0,556.0,12574.0,23625,14828,1480,12076,5385,7642,782,11549,4363,7186,8797,698,Chiapas,Huixtán,16.712151,-92.454597,NA,NA
07039,22536.0,8746.0,887.0,11168.0,4343.0,6691.0,428.0,11368.0,4403.0,6835.0,459.0,13526.0,23172,14752,1152,11648,5424,7452,558,11524,4224,7300,8420,594,Chiapas,Huitiupán,17.173232,-92.685932,NA,NA
07040,51359.0,16206.0,3250.0,26445.0,7939.0,18477.0,1694.0,24914.0,8267.0,16616.0,1556.0,35093.0,54332,37473,4273,28175,12602,19803,2227,26157,8487,17670,16859,2046,Chiapas,Huixtla,15.138028,-92.466011,NA,NA
07041,41266.0,13428.0,2091.0,21010.0,6748.0,14227.0,1017.0,20256.0,6680.0,13541.0,1074.0,27768.0,44891,30172,2566,23028,10438,15800,1239,21863,7491,14372,14719,1327,Chiapas,La Independencia,16.253935,-92.023452,NA,NA
07042,10239.0,3941.0,461.0,5169.0,1973.0,3195.0,232.0,5070.0,1968.0,3102.0,229.0,6297.0,11342,7082,618,5787,2641,3659,291,5555,2132,3423,4260,327,Chiapas,Ixhuatán,17.293271,-93.008382,NA,NA
07043,10176.0,3444.0,548.0,5099.0,1659.0,3439.0,254.0,5077.0,1785.0,3292.0,294.0,6731.0,10772,7219,722,5485,2674,3699,346,5287,1767,3520,3553,376,Chiapas,Ixtacomitán,17.430751,-93.096559,NA,NA
07044,24517.0,8933.0,1075.0,12396.0,4394.0,7998.0,534.0,12121.0,4539.0,7581.0,541.0,15579.0,27198,17967,1437,13746,6350,9127,698,13452,4612,8840,9231,739,Chiapas,Ixtapa,16.803525,-92.905903,NA,NA
07045,5478.0,1848.0,310.0,2703.0,908.0,1792.0,143.0,2775.0,940.0,1833.0,167.0,3625.0,5384,3781,325,2679,1269,1903,155,2705,827,1878,1603,170,Chiapas,Ixtapangajoya,17.497539,-93.001666,NA,NA
07046,37818.0,11143.0,3419.0,19060.0,5494.0,13558.0,1642.0,18758.0,5649.0,13103.0,1777.0,26661.0,39109,27365,4120,19956,9241,14124,1956,19153,5912,13241,11744,2164,Chiapas,Jiquipilas,16.667721,-93.650475,NA,NA
07047,18683.0,8139.0,642.0,9235.0,3940.0,5247.0,316.0,9448.0,4199.0,5200.0,326.0,10447.0,20606,11961,782,10246,4962,6065,389,10360,4464,5896,8645,393,Chiapas,Jitotol,17.067968,-92.862336,NA,NA
07048,21084.0,6285.0,1430.0,10603.0,3107.0,7484.0,675.0,10481.0,3178.0,7292.0,755.0,14776.0,21222,14829,1485,10817,5015,7672,728,10405,3248,7157,6393,757,Chiapas,Juárez,17.608151,-93.193331,NA,NA
07049,20349.0,8865.0,597.0,10314.0,4413.0,5367.0,301.0,10035.0,4452.0,5049.0,296.0,10416.0,23889,12998,833,12283,5721,6821,416,11606,5429,6177,10891,417,Chiapas,Larráinzar,16.884446,-92.713258,NA,NA
07050,4974.0,1253.0,394.0,2533.0,630.0,1901.0,197.0,2441.0,623.0,1817.0,197.0,3718.0,4915,3607,468,2478,1170,1853,234,2437,683,1754,1308,234,Chiapas,La Libertad,17.690136,-91.719062,NA,NA
07051,43913.0,14484.0,2779.0,22233.0,7091.0,15099.0,1324.0,21680.0,7393.0,14243.0,1455.0,29342.0,47932,32961,3362,24400,11448,16858,1517,23532,7429,16103,14971,1845,Chiapas,Mapastepec,15.441134,-92.891606,NA,NA
07052,111484.0,41354.0,4297.0,56697.0,20754.0,33847.0,2017.0,54787.0,20600.0,32096.0,2280.0,65943.0,122821,77901,5538,62016,29330,39956,2716,60805,22860,37945,44920,2822,Chiapas,Las Margaritas,16.315947,-91.981568,NA,NA
07053,7793.0,2968.0,577.0,3925.0,1437.0,2485.0,268.0,3868.0,1531.0,2336.0,309.0,4821.0,7769,4980,707,3985,1849,2564,332,3784,1368,2416,2789,375,Chiapas,Mazapa de Madero,15.387966,-92.187735,NA,NA
07054,26573.0,8129.0,1888.0,13408.0,3961.0,9434.0,905.0,13165.0,4168.0,8988.0,983.0,18422.0,29239,20314,2258,14888,6969,10488,1098,14351,4525,9826,8925,1160,Chiapas,Mazatán,14.863025,-92.449471,NA,NA
07055,5033.0,1565.0,321.0,2601.0,769.0,1830.0,171.0,2432.0,796.0,1634.0,150.0,3464.0,5743,3988,405,2978,1323,2124,204,2765,901,1864,1755,201,Chiapas,Metapa,14.837314,-92.190945,NA,NA
07056,11157.0,5347.0,335.0,5660.0,2646.0,3005.0,170.0,5497.0,2701.0,2785.0,165.0,5790.0,11906,6216,344,6036,2883,3266,190,5870,2920,2950,5690,154,Chiapas,Mitontic,16.864471,-92.629651,NA,NA
07057,69119.0,26204.0,3578.0,35086.0,13027.0,22014.0,1744.0,34033.0,13177.0,20821.0,1834.0,42835.0,72967,46897,4568,37298,17666,24335,2266,35669,13107,22562,26070,2302,Chiapas,Motozintla,15.363167,-92.247744,NA,NA
07058,4317.0,1698.0,188.0,2091.0,833.0,1216.0,82.0,2226.0,865.0,1320.0,106.0,2536.0,4262,2618,176,2096,1024,1316,80,2166,864,1302,1644,96,Chiapas,Nicolás Ruíz,16.437073,-92.585347,NA,NA
07059,198877.0,78523.0,5328.0,99764.0,38781.0,52598.0,2463.0,99113.0,39742.0,50983.0,2865.0,103581.0,218893,129226,7643,111017,51198,66537,3800,107876,45187,62689,89667,3843,Chiapas,Ocosingo,16.908038,-92.095827,NA,NA
07060,11878.0,5533.0,550.0,5985.0,2714.0,3270.0,265.0,5893.0,2819.0,3073.0,285.0,6343.0,12508,6836,667,6492,2913,3620,323,6016,2800,3216,5672,344,Chiapas,Ocotepec,17.225029,-93.164405,NA,NA
07061,82059.0,28638.0,3909.0,41479.0,14234.0,27025.0,1970.0,40580.0,14404.0,25956.0,1939.0,52981.0,92103,61268,5272,47014,21741,31443,2598,45089,15264,29825,30835,2674,Chiapas,Ocozocoautla de Espinosa,16.761462,-93.375653,NA,NA
07062,17067.0,6008.0,882.0,8453.0,2991.0,5462.0,390.0,8614.0,3017.0,5597.0,492.0,11059.0,18128,12064,1051,9084,4446,6052,476,9044,3032,6012,6064,575,Chiapas,Ostuacán,17.405591,-93.337136,NA,NA
07063,3792.0,1322.0,189.0,1898.0,650.0,1248.0,94.0,1894.0,672.0,1222.0,95.0,2470.0,3682,2475,216,1844,898,1255,116,1838,618,1220,1207,100,Chiapas,Osumacinta,16.935467,-93.091337,NA,NA
07064,43350.0,19042.0,1791.0,21506.0,9534.0,11928.0,843.0,21844.0,9508.0,12289.0,948.0,24217.0,48126,26659,1899,24271,11580,13385,936,23855,10581,13274,21467,963,Chiapas,Oxchuc,16.786489,-92.343349,NA,NA
07065,110918.0,39360.0,4347.0,56132.0,19354.0,36235.0,1965.0,54786.0,20006.0,34239.0,2382.0,70474.0,119826,77950,5666,61374,28015,40272,2563,58452,20774,37678,41876,3103,Chiapas,Palenque,17.509133,-91.981033,NA,NA
07066,20589.0,9134.0,659.0,10363.0,4466.0,5689.0,314.0,10226.0,4668.0,5349.0,345.0,11038.0,22011,12325,752,11221,5091,6333,344,10790,4798,5992,9686,408,Chiapas,Pantelhó,17.006659,-92.46958,NA,NA
07067,10870.0,4340.0,489.0,5471.0,2152.0,3313.0,257.0,5399.0,2188.0,3205.0,232.0,6518.0,12136,7472,595,6149,2909,3880,301,5987,2395,3592,4664,294,Chiapas,Pantepec,17.188092,-93.049546,NA,NA
07068,29813.0,8939.0,1799.0,14993.0,4340.0,10587.0,891.0,14820.0,4599.0,10152.0,908.0,20739.0,31107,22207,2148,15816,7398,11497,1004,15291,4581,10710,8900,1144,Chiapas,Pichucalco,17.508551,-93.117768,NA,NA
07069,50079.0,15638.0,3575.0,25276.0,7681.0,17580.0,1710.0,24803.0,7957.0,16834.0,1865.0,34414.0,53525,37377,4587,27093,12269,19140,2224,26432,8195,18237,16148,2363,Chiapas,Pijijiapan,15.691674,-93.209317,NA,NA
07070,13201.0,5350.0,744.0,6615.0,2600.0,4007.0,393.0,6586.0,2750.0,3833.0,351.0,7840.0,14121,8507,907,7096,3245,4304,468,7025,2822,4203,5614,439,Chiapas,El Porvenir,15.456367,-92.27964,NA,NA
07071,27899.0,9480.0,1889.0,14049.0,4669.0,9370.0,856.0,13850.0,4811.0,9030.0,1033.0,18400.0,28961,19459,2241,14687,6780,9917,1026,14274,4732,9542,9502,1215,Chiapas,Villa Comaltitlán,15.211938,-92.576024,NA,NA
07072,31075.0,12931.0,1039.0,15971.0,6496.0,9184.0,559.0,15104.0,6435.0,8383.0,480.0,17567.0,31942,19230,1245,16940,7436,10461,650,15002,6233,8769,12712,595,Chiapas,Pueblo Nuevo Solistahuacán,17.157568,-92.897322,NA,NA
07073,9002.0,3622.0,409.0,4520.0,1822.0,2698.0,208.0,4482.0,1800.0,2681.0,201.0,5379.0,9578,6005,510,4885,2250,3063,260,4693,1751,2942,3573,250,Chiapas,Rayón,17.200503,-93.011217,NA,NA
07074,40711.0,13030.0,1652.0,20707.0,6467.0,14149.0,821.0,20004.0,6563.0,13351.0,831.0,27500.0,45104,31373,2012,22654,10505,16000,993,22450,7077,15373,13731,1019,Chiapas,Reforma,17.865812,-93.147108,NA,NA
07075,25530.0,8729.0,1465.0,12871.0,4274.0,8524.0,745.0,12659.0,4455.0,8130.0,720.0,16654.0,28261,18842,1756,14368,6466,9689,896,13893,4740,9153,9419,860,Chiapas,Las Rosas,16.364132,-92.369581,NA,NA
07076,25187.0,9575.0,976.0,12581.0,4711.0,7697.0,476.0,12606.0,4864.0,7571.0,500.0,15268.0,26921,16843,1327,13440,6375,8455,622,13481,5093,8388,10078,705,Chiapas,Sabanilla,17.283484,-92.55172,NA,NA
07077,57253.0,21491.0,2450.0,28820.0,10525.0,18032.0,1129.0,28433.0,10966.0,17204.0,1321.0,35236.0,63446,40308,3147,32004,14551,20487,1495,31442,11621,19821,23138,1652,Chiapas,Salto de Agua,17.557021,-92.333422,NA,NA
07078,185917.0,60368.0,6093.0,96921.0,29806.0,64953.0,3478.0,88996.0,30562.0,56260.0,2615.0,121213.0,209591,146160,9015,111383,47402,79694,5016,98208,31742,66466,63431,3999,Chiapas,San Cristóbal de las Casas,16.737022,-92.637564,NA,NA
07079,33060.0,11145.0,1636.0,16375.0,5490.0,10856.0,764.0,16685.0,5655.0,11e3,872.0,21856.0,39204,26509,2194,19550,9328,13268,1017,19654,6413,13241,12695,1177,Chiapas,San Fernando,16.871712,-93.206285,NA,NA
07080,38143.0,15513.0,1656.0,18794.0,7546.0,11215.0,800.0,19349.0,7967.0,11349.0,856.0,22564.0,35192,22253,1881,17391,8337,10979,897,17801,6527,11274,12939,984,Chiapas,Siltepec,15.557185,-92.32286,NA,NA
07081,40297.0,16687.0,1228.0,20422.0,8280.0,11435.0,601.0,19875.0,8407.0,10759.0,627.0,22194.0,44295,26078,1652,22470,10272,13422,824,21825,9169,12656,18217,828,Chiapas,Simojovel,17.140826,-92.715208,NA,NA
07082,12269.0,5330.0,344.0,6156.0,2626.0,3386.0,184.0,6113.0,2704.0,3265.0,160.0,6651.0,13844,7966,435,7016,3296,4106,236,6828,2968,3860,5878,199,Chiapas,Sitalá,17.025051,-92.307743,NA,NA
07083,17125.0,5263.0,956.0,8598.0,2572.0,6012.0,451.0,8527.0,2691.0,5825.0,505.0,11837.0,18539,12990,1264,9316,4225,6644,580,9223,2877,6346,5549,684,Chiapas,Socoltenango,16.242949,-92.350316,NA,NA
07084,8065.0,2975.0,436.0,4011.0,1437.0,2574.0,206.0,4054.0,1538.0,2516.0,230.0,5090.0,8082,5140,487,4035,1840,2586,227,4047,1493,2554,2942,260,Chiapas,Solosuchiapa,17.428656,-93.031179,NA,NA
07085,9740.0,3429.0,441.0,4853.0,1683.0,3167.0,204.0,4887.0,1746.0,3137.0,237.0,6304.0,10707,7113,583,5371,2490,3585,278,5336,1808,3528,3594,305,Chiapas,Soyaló,16.890993,-92.92529,NA,NA
07086,21045.0,6729.0,1154.0,10494.0,3240.0,7250.0,580.0,10551.0,3489.0,7060.0,574.0,14310.0,24049,16498,1360,12091,5735,8361,696,11958,3821,8137,7551,664,Chiapas,Suchiapa,16.621958,-93.104794,NA,NA
07087,35056.0,12018.0,1806.0,17885.0,5857.0,12020.0,901.0,17171.0,6161.0,11003.0,905.0,23023.0,38797,25837,2224,19857,8868,13531,1119,18940,6634,12306,12960,1105,Chiapas,Suchiate,14.679452,-92.150942,NA,NA
07088,2235.0,735.0,138.0,1092.0,340.0,740.0,63.0,1143.0,395.0,738.0,75.0,1478.0,2283,1553,156,1145,523,797,73,1138,382,756,730,83,Chiapas,Sunuapa,17.489378,-93.243169,NA,NA
07089,320451.0,96432.0,18139.0,166230.0,47250.0,118723.0,9623.0,154221.0,49182.0,104791.0,8516.0,223514.0,348156,247965,21596,181975,82611,133922,11752,166181,52138,114043,100191,9844,Chiapas,Tapachula,14.911071,-92.26432,NA,NA
07090,4121.0,1535.0,284.0,2119.0,762.0,1357.0,147.0,2002.0,773.0,1229.0,137.0,2586.0,3839,2512,305,1959,914,1304,159,1880,672,1208,1327,146,Chiapas,Tapalapa,17.190048,-93.104605,NA,NA
07091,12170.0,4183.0,629.0,6161.0,2077.0,4083.0,293.0,6009.0,2106.0,3902.0,336.0,7985.0,12887,8636,856,6701,3047,4577,416,6186,2127,4059,4251,440,Chiapas,Tapilula,17.248403,-93.016258,NA,NA
07092,41045.0,14709.0,2295.0,20625.0,7127.0,13481.0,1092.0,20420.0,7582.0,12824.0,1203.0,26305.0,41305,27660,2717,20841,9451,14185,1218,20464,6989,13475,13645,1499,Chiapas,Tecpatán,17.136478,-93.311165,NA,NA
07093,40268.0,17461.0,1428.0,20507.0,8596.0,11834.0,751.0,19761.0,8865.0,10821.0,677.0,22655.0,43593,24394,1680,22699,10375,13109,890,20894,9609,11285,19199,790,Chiapas,Tenejapa,16.819017,-92.506492,NA,NA
07094,37607.0,14809.0,1506.0,19377.0,7418.0,11917.0,789.0,18230.0,7391.0,10794.0,717.0,22711.0,43175,26360,1838,22283,10450,13851,948,20892,8383,12509,16815,890,Chiapas,Teopisca,16.541514,-92.472597,NA,NA
07096,71432.0,27481.0,3298.0,35728.0,13684.0,21443.0,1617.0,35704.0,13797.0,21307.0,1681.0,42750.0,77554,48632,4100,38905,18070,24524,2030,38649,14541,24108,28922,2070,Chiapas,Tila,17.300635,-92.425865,NA,NA
07097,84594.0,25612.0,5825.0,42667.0,12443.0,30139.0,2989.0,41927.0,13169.0,28677.0,2836.0,58816.0,89178,63083,6944,45117,21227,32559,3531,44061,13537,30524,26095,3413,Chiapas,Tonalá,16.091356,-93.751783,NA,NA
07098,6375.0,2169.0,270.0,3186.0,1061.0,2122.0,126.0,3189.0,1108.0,2079.0,144.0,4201.0,7284,4769,359,3643,1736,2428,166,3641,1300,2341,2515,193,Chiapas,Totolapa,16.544733,-92.680376,NA,NA
07099,72769.0,23196.0,4385.0,37176.0,11563.0,25589.0,2068.0,35593.0,11633.0,23931.0,2317.0,49520.0,76917,52460,5282,39445,18288,27473,2524,37472,12485,24987,24457,2758,Chiapas,La Trinitaria,16.119059,-92.050469,NA,NA
07100,31723.0,12101.0,1370.0,16132.0,5956.0,9903.0,679.0,15591.0,6145.0,9171.0,691.0,19074.0,34305,21405,1805,17686,8137,11314,895,16619,6528,10091,12900,910,Chiapas,Tumbalá,17.278463,-92.315988,NA,NA
07101,553374.0,147926.0,25591.0,289433.0,72800.0,213658.0,14325.0,263941.0,75126.0,185828.0,11266.0,399486.0,598710,449062,33569,314957,140288,240929,19343,283753,75620,208133,149648,14226,Chiapas,Tuxtla Gutiérrez,16.753972,-93.115192,NA,NA
07102,37737.0,11671.0,2572.0,19250.0,5638.0,13602.0,1326.0,18487.0,6033.0,12444.0,1246.0,26046.0,41823,29044,3067,21604,9876,15467,1565,20219,6642,13577,12779,1502,Chiapas,Tuxtla Chico,14.94019,-92.16897,NA,NA
07103,28137.0,9408.0,1745.0,14241.0,4562.0,9667.0,810.0,13896.0,4846.0,9047.0,935.0,18714.0,31755,21166,2088,16124,7669,11022,956,15631,5487,10144,10589,1132,Chiapas,Tuzantán,15.146063,-92.421621,NA,NA
07104,14009.0,4131.0,946.0,7125.0,2053.0,5029.0,453.0,6884.0,2078.0,4764.0,493.0,9793.0,15316,10831,1157,7885,3634,5645,567,7431,2245,5186,4485,590,Chiapas,Tzimol,16.184231,-92.187937,NA,NA
07105,14089.0,4406.0,1180.0,7206.0,2139.0,5057.0,610.0,6883.0,2267.0,4610.0,570.0,9667.0,15350,10646,1410,7848,3638,5528,708,7502,2384,5118,4704,702,Chiapas,Unión Juárez,15.060656,-92.081888,NA,NA
07106,61341.0,19868.0,3534.0,30567.0,9761.0,20448.0,1669.0,30774.0,10107.0,20309.0,1865.0,40757.0,65009,44094,4131,32986,15226,22539,2004,32023,10468,21555,20915,2127,Chiapas,Venustiano Carranza,16.339617,-92.565135,NA,NA
07107,74477.0,23870.0,4287.0,37679.0,11788.0,25859.0,2053.0,36798.0,12082.0,24689.0,2234.0,50548.0,79003,54940,5203,40403,18365,28236,2518,38600,11896,26704,24063,2685,Chiapas,Villa Corzo,16.184751,-93.267684,NA,NA
07108,98618.0,30394.0,5911.0,50023.0,14968.0,34971.0,2993.0,48595.0,15426.0,33090.0,2918.0,68061.0,104833,74537,8068,53816,23852,38720,4139,51017,15200,35817,30296,3929,Chiapas,Villaflores,16.235486,-93.267708,NA,NA
07109,34028.0,12005.0,1556.0,17384.0,5901.0,11095.0,835.0,16644.0,6104.0,10150.0,721.0,21245.0,37833,24340,1841,19441,8881,12820,988,18392,6872,11520,13493,853,Chiapas,Yajalón,17.17391,-92.333944,NA,NA
07110,6734.0,2515.0,341.0,3330.0,1248.0,2082.0,155.0,3404.0,1267.0,2137.0,186.0,4219.0,7202,4654,427,3681,1655,2362,194,3521,1229,2292,2548,233,Chiapas,San Lucas,16.611637,-92.719342,NA,NA
07111,36489.0,14515.0,1397.0,19313.0,7375.0,11449.0,794.0,17176.0,7140.0,9547.0,603.0,20996.0,41112,24997,1790,21961,9646,13739,1004,19151,7893,11258,16115,786,Chiapas,Zinacantán,16.760119,-92.723581,NA,NA
07112,29016.0,13804.0,871.0,14862.0,7010.0,7722.0,427.0,14154.0,6794.0,7232.0,444.0,14954.0,34829,18685,1064,17852,8333,9748,529,16977,8040,8937,16144,535,Chiapas,San Juan Cancuc,16.892243,-92.371953,NA,NA
07113,5072.0,2275.0,144.0,2634.0,1170.0,1297.0,82.0,2438.0,1105.0,1168.0,62.0,2465.0,6712,3576,199,3489,1555,1860,113,3223,1507,1716,3136,86,Chiapas,Aldama,16.917818,-92.688192,NA,NA
07114,17282.0,7098.0,552.0,8587.0,3498.0,5067.0,229.0,8695.0,3600.0,5071.0,323.0,10138.0,20193,12350,727,9997,4730,6188,320,10196,4034,6162,7843,407,Chiapas,Benemérito de las Américas,16.515828,-90.653302,NA,NA
07115,11451.0,4877.0,351.0,5616.0,2372.0,3223.0,161.0,5835.0,2505.0,3309.0,190.0,6532.0,12945,7630,471,6478,3100,3809,217,6467,2646,3821,5315,254,Chiapas,Maravilla Tenejapa,16.140397,-91.295104,NA,NA
07116,9856.0,4211.0,312.0,4863.0,2076.0,2778.0,140.0,4993.0,2135.0,2848.0,172.0,5626.0,11444,6850,420,5644,2619,3372,190,5800,2322,3478,4594,230,Chiapas,Marqués de Comillas,16.333133,-90.765283,NA,NA
07117,6900.0,2708.0,254.0,3426.0,1355.0,2071.0,109.0,3474.0,1353.0,2121.0,145.0,4192.0,7682,4952,354,3830,1861,2470,162,3852,1370,2482,2730,192,Chiapas,Montecristo de Guerrero,15.693918,-92.61926,NA,NA
07118,4545.0,2033.0,129.0,2350.0,1030.0,1317.0,68.0,2195.0,1003.0,1189.0,61.0,2506.0,5163,2930,161,2649,1232,1521,81,2514,1105,1409,2233,80,Chiapas,San Andrés Duraznal,17.131998,-92.804988,NA,NA
07119,3245.0,1393.0,94.0,1638.0,686.0,884.0,45.0,1607.0,707.0,832.0,49.0,1716.0,3684,2033,113,1827,873,1052,64,1857,876,981,1651,49,Chiapas,Santiago el Pinar,16.941438,-92.714596,NA,NA
08001,11457.0,3757.0,660.0,5605.0,1815.0,3757.0,312.0,5852.0,1942.0,3880.0,348.0,7637.0,18082,11638,1130,9000,4301,5915,487,9082,3359,5723,6444,643,Chihuahua,Ahumada,30.617734,-106.512415,PRI.PT.PVEM.PNA,NA
08002,22302.0,6614.0,1629.0,11203.0,3249.0,7893.0,783.0,11099.0,3365.0,7678.0,846.0,15571.0,31424,21734,2270,16036,7383,11128,1017,15388,4782,10606,9690,1253,Chihuahua,Aldama,28.838381,-105.911293,PRI.PT.PVEM.PNA,NA
08003,8409.0,2058.0,1115.0,4151.0,989.0,3159.0,507.0,4258.0,1069.0,3186.0,608.0,6345.0,28380,19654,2105,14241,6786,9999,1006,14139,4484,9655,8726,1099,Chihuahua,Allende,26.939426,-105.395077,PRI.PT.PVEM.PNA,NA
08004,10688.0,2743.0,307.0,4416.0,1340.0,2875.0,144.0,6272.0,1403.0,4666.0,163.0,7541.0,32872,20270,1331,16549,7542,10343,633,16323,6396,9927,12602,698,Chihuahua,Aquiles Serdán,28.594503,-105.887474,PAN,NA
08005,23975.0,7691.0,1146.0,11768.0,3878.0,7102.0,512.0,12207.0,3813.0,7609.0,634.0,14711.0,19348,12794,1006,9619,4397,6377,471,9729,3312,6417,6554,535,Chihuahua,Ascensión,31.092176,-107.995949,PRI.PT.PVEM.PNA,NA
08006,6011.0,1471.0,778.0,2937.0,707.0,2213.0,387.0,3074.0,764.0,2295.0,391.0,4508.0,30732,20160,2100,15864,7145,10585,1001,14868,5293,9575,10572,1099,Chihuahua,Bachíniva,28.764943,-107.253622,PAN,NA
08007,17672.0,6385.0,1274.0,8692.0,3154.0,5516.0,596.0,8980.0,3231.0,5732.0,678.0,11248.0,9913,6104,442,5172,2309,3274,238,4741,1911,2830,3809,204,Chihuahua,Balleza,26.954108,-106.346923,PRI.PT.PVEM.PNA,NA
08008,14362.0,5580.0,819.0,7065.0,2745.0,4316.0,375.0,7297.0,2835.0,4455.0,444.0,8771.0,28162,18456,1564,14295,6784,9470,757,13867,4881,8986,9706,807,Chihuahua,Batopilas,27.026652,-107.73971,PRI.PT.PVEM.PNA,NA
08009,28766.0,9213.0,1750.0,14619.0,4549.0,9918.0,870.0,14147.0,4664.0,9332.0,880.0,19250.0,40114,28824,3465,20708,9393,15102,1869,19406,5684,13722,11290,1596,Chihuahua,Bocoyna,27.840743,-107.589253,PAN,NA
08010,22378.0,7237.0,1578.0,11091.0,3510.0,7496.0,758.0,11287.0,3727.0,7470.0,820.0,14966.0,7494,4671,499,3752,1770,2413,240,3742,1484,2258,2823,259,Chihuahua,Buenaventura,29.843371,-107.471314,PAN,NA
08011,48748.0,13810.0,3647.0,24716.0,6879.0,17763.0,1830.0,24032.0,6931.0,17024.0,1817.0,34787.0,20142,13069,1437,10069,4615,6617,649,10073,3621,6452,7073,788,Chihuahua,Camargo,27.694963,-105.17162,PAN,NA
08012,8795.0,2930.0,835.0,4392.0,1473.0,2914.0,400.0,4403.0,1457.0,2944.0,435.0,5858.0,51722,34008,2443,26083,12119,17492,1238,25639,9123,16516,17714,1205,Chihuahua,Carichí,27.916532,-107.05681,PAN,NA
08013,10587.0,3149.0,930.0,5207.0,1590.0,3602.0,430.0,5380.0,1559.0,3806.0,500.0,7408.0,34997,21235,1315,17895,8315,10985,668,17102,6852,10250,13762,647,Chihuahua,Casas Grandes,30.375704,-107.948805,PRI.PT.PVEM.PNA,NA
08014,2284.0,550.0,293.0,1100.0,269.0,831.0,134.0,1184.0,281.0,903.0,159.0,1734.0,22606,13300,808,11695,5397,7024,416,10911,4635,6276,9306,392,Chihuahua,Coronado,26.737615,-105.158312,PAN,NA
08015,1681.0,431.0,210.0,764.0,219.0,543.0,91.0,917.0,212.0,704.0,119.0,1247.0,45594,31267,3462,23372,10749,16192,1643,22222,7147,15075,14327,1819,Chihuahua,Coyame del Sotol,29.462043,-105.094358,PAN,NA
08016,3982.0,1128.0,405.0,1939.0,541.0,1395.0,179.0,2043.0,587.0,1454.0,226.0,2849.0,17065,12437,1691,8543,4065,6212,779,8522,2297,6225,4628,912,Chihuahua,La Cruz,27.863889,-105.196389,PAN,NA
08017,154639.0,45486.0,8665.0,78703.0,22592.0,54140.0,4438.0,75936.0,22894.0,51063.0,4227.0,105203.0,84455,58752,6353,42951,20097,30351,3127,41504,13103,28401,25703,3226,Chihuahua,Cuauhtémoc,28.406312,-106.866044,PRI.PT.PVEM.PNA,NA
08018,5414.0,1461.0,593.0,2602.0,703.0,1898.0,278.0,2812.0,758.0,2051.0,315.0,3949.0,9210,5891,575,4728,2105,3051,253,4482,1642,2840,3319,322,Chihuahua,Cusihuiriachi,28.241111,-106.836667,PAN,NA
08019,819543.0,207832.0,49590.0,420048.0,102190.0,304894.0,27825.0,399495.0,105642.0,280857.0,21765.0,585751.0,153448,107519,8467,80904,35751,57733,4374,72544,22758,49786,45929,4093,Chihuahua,Chihuahua,28.636794,-106.076307,PAN,NA
08020,8441.0,2881.0,568.0,3993.0,1375.0,2603.0,266.0,4448.0,1506.0,2930.0,302.0,5533.0,46405,31382,2918,23022,10828,15719,1414,23383,7720,15663,15023,1504,Chihuahua,Chínipas,27.39281,-108.536229,PAN,NA
08021,137935.0,38191.0,9106.0,69922.0,18796.0,50792.0,4785.0,68013.0,19395.0,48297.0,4321.0,99089.0,21800,14806,1587,11227,4974,7764,784,10573,3531,7042,6994,803,Chihuahua,Delicias,28.193333,-105.471111,PRI.PT.PVEM.PNA,NA
08022,2911.0,557.0,722.0,1433.0,284.0,1138.0,338.0,1478.0,273.0,1196.0,384.0,2334.0,16803,9137,416,8522,4002,4679,216,8281,3823,4458,7666,200,Chihuahua,Dr. Belisario Domínguez,28.154667,-106.47703,PAN,NA
08023,5892.0,2206.0,258.0,2951.0,1086.0,1861.0,137.0,2941.0,1120.0,1816.0,121.0,3677.0,87332,50504,3765,47179,20596,28507,2165,40153,18156,21997,36828,1600,Chihuahua,Galeana,30.112949,-107.616744,PRI.PT.PVEM.PNA,NA
08024,3937.0,986.0,493.0,1958.0,487.0,1452.0,236.0,1979.0,499.0,1461.0,257.0,2913.0,12181,6187,487,6135,2724,3132,253,6046,2991,3055,5994,234,Chihuahua,Santa Isabel,28.343346,-106.368054,PAN,NA
08025,8624.0,2304.0,810.0,4329.0,1097.0,3050.0,386.0,4295.0,1207.0,2906.0,424.0,5956.0,7644,5125,527,3801,1756,2594,264,3843,1312,2531,2519,263,Chihuahua,Gómez Farías,29.357019,-107.738655,PAN,NA
08026,3209.0,687.0,633.0,1554.0,334.0,1217.0,305.0,1655.0,353.0,1299.0,328.0,2516.0,39648,22267,1211,20175,9398,11566,634,19473,8772,10701,17381,577,Chihuahua,Gran Morelos,28.247824,-106.510123,PRD,NA
08027,49689.0,18087.0,2659.0,25065.0,8972.0,15959.0,1307.0,24624.0,9115.0,15380.0,1352.0,31339.0,100751,70104,6099,51872,24002,36364,2947,48879,15139,33740,30647,3152,Chihuahua,Guachochi,26.819153,-107.069362,PRI.PT.PVEM.PNA,NA
08028,6458.0,2111.0,436.0,3215.0,1056.0,2108.0,209.0,3243.0,1055.0,2137.0,227.0,4245.0,5899,4089,425,2937,1348,2066,182,2962,939,2023,1810,243,Chihuahua,Guadalupe,31.390107,-106.101754,PRI.PT.PVEM.PNA,NA
08029,53499.0,20644.0,2515.0,26446.0,10169.0,16222.0,1263.0,27053.0,10475.0,16527.0,1252.0,32749.0,5000,3424,331,2528,1180,1753,157,2472,801,1671,1576,174,Chihuahua,Guadalupe y Calvo,26.094516,-106.964369,PRI.PT.PVEM.PNA,NA
08030,8998.0,3232.0,639.0,4398.0,1610.0,2777.0,289.0,4600.0,1622.0,2965.0,350.0,5742.0,34744,22909,2231,17538,8030,11707,1067,17206,6004,11202,11835,1164,Chihuahua,Guazapares,27.276382,-108.279956,PRI.PT.PVEM.PNA,NA
08031,39626.0,11198.0,3422.0,19714.0,5553.0,14004.0,1645.0,19912.0,5645.0,14109.0,1777.0,28113.0,127914,72673,4345,65348,30327,37619,2014,62566,27512,35054,55241,2331,Chihuahua,Guerrero,28.548193,-107.486924,PRI.PT.PVEM.PNA,NA
08032,107061.0,29392.0,7448.0,55178.0,14523.0,40407.0,3965.0,51883.0,14869.0,36774.0,3483.0,77181.0,31822,21013,2290,16050,7407,10826,1148,15772,5585,10187,10809,1142,Chihuahua,Hidalgo del Parral,26.922088,-105.667143,PRI.PT.PVEM.PNA,NA
08033,1049.0,245.0,164.0,527.0,132.0,392.0,79.0,522.0,113.0,408.0,85.0,800.0,7430,4735,348,3688,1835,2373,140,3742,1380,2362,2695,208,Chihuahua,Huejotitán,27.05467,-106.179456,PAN,NA
08034,6934.0,1838.0,809.0,3400.0,943.0,2449.0,374.0,3534.0,895.0,2634.0,435.0,5083.0,73436,49075,4374,37767,16993,25930,2130,35669,12524,23145,24361,2244,Chihuahua,Ignacio Zaragoza,29.643212,-107.764195,PAN,NA
08035,10953.0,3676.0,710.0,5226.0,1779.0,3385.0,329.0,5727.0,1897.0,3763.0,381.0,7148.0,14416,9752,946,7429,3489,5133,497,6987,2368,4619,4664,449,Chihuahua,Janos,30.887258,-108.18985,PRI.PT.PVEM.PNA,NA
08036,41265.0,12333.0,3081.0,20701.0,6109.0,14580.0,1536.0,20564.0,6224.0,14329.0,1545.0,28909.0,7057,4176,474,3617,1600,2212,250,3440,1476,1964,2881,224,Chihuahua,Jiménez,27.130549,-104.922977,PAN,NA
08037,1332131.0,397242.0,52479.0,666440.0,195240.0,438231.0,29072.0,665691.0,202002.0,430699.0,23407.0,868930.0,35017,24707,2502,17975,8174,12799,1235,17042,5134,11908,10310,1267,Chihuahua,Juárez,31.746465,-106.485019,PAN,NA
08038,4953.0,1289.0,581.0,2400.0,642.0,1748.0,277.0,2553.0,647.0,1899.0,304.0,3647.0,23625,14828,1480,12076,5385,7642,782,11549,4363,7186,8797,698,Chihuahua,Julimes,28.423056,-105.430556,PAN,NA
08039,4025.0,1024.0,580.0,1924.0,500.0,1424.0,250.0,2101.0,524.0,1576.0,330.0,3e3,23172,14752,1152,11648,5424,7452,558,11524,4224,7300,8420,594,Chihuahua,López,27.0025,-105.033056,PRI.PT.PVEM.PNA,NA
08040,29611.0,8835.0,2295.0,14642.0,4314.0,10060.0,1088.0,14969.0,4521.0,10181.0,1207.0,20241.0,54332,37473,4273,28175,12602,19803,2227,26157,8487,17670,16859,2046,Chihuahua,Madera,29.19,-108.141389,PAN,NA
08041,1921.0,656.0,114.0,927.0,334.0,592.0,49.0,994.0,322.0,671.0,65.0,1263.0,44891,30172,2566,23028,10438,15800,1239,21863,7491,14372,14719,1327,Chihuahua,Maguarichi,27.859303,-107.993956,PRI.PT.PVEM.PNA,NA
08042,1601.0,402.0,211.0,730.0,187.0,538.0,86.0,871.0,215.0,652.0,125.0,1190.0,11342,7082,618,5787,2641,3659,291,5555,2132,3423,4260,327,Chihuahua,Manuel Benavides,29.107386,-103.907816,PRI.PT.PVEM.PNA,NA
08043,3104.0,772.0,392.0,1526.0,380.0,1133.0,195.0,1578.0,392.0,1173.0,197.0,2306.0,10772,7219,722,5485,2674,3699,346,5287,1767,3520,3553,376,Chihuahua,Matachí,28.843228,-107.754648,PAN,NA
08044,4499.0,1247.0,535.0,2206.0,603.0,1603.0,244.0,2293.0,644.0,1649.0,291.0,3252.0,27198,17967,1437,13746,6350,9127,698,13452,4612,8840,9231,739,Chihuahua,Matamoros,26.763877,-105.58333,PAN,NA
08045,43833.0,12921.0,3440.0,21903.0,6315.0,15533.0,1697.0,21930.0,6606.0,15274.0,1743.0,30807.0,5384,3781,325,2679,1269,1903,155,2705,827,1878,1603,170,Chihuahua,Meoqui,28.267797,-105.480291,PRI.PT.PVEM.PNA,NA
08046,8343.0,2940.0,451.0,4058.0,1454.0,2601.0,220.0,4285.0,1486.0,2796.0,231.0,5397.0,39109,27365,4120,19956,9241,14124,1956,19153,5912,13241,11744,2164,Chihuahua,Morelos,26.670527,-107.677248,PRI.PT.PVEM.PNA,NA
08047,5312.0,1713.0,442.0,2537.0,846.0,1675.0,213.0,2775.0,867.0,1892.0,229.0,3567.0,20606,11961,782,10246,4962,6065,389,10360,4464,5896,8645,393,Chihuahua,Moris,28.148384,-108.523238,PAN,NA
08048,22880.0,6297.0,2607.0,11250.0,3094.0,8128.0,1256.0,11630.0,3203.0,8397.0,1351.0,16525.0,21222,14829,1485,10817,5015,7672,728,10405,3248,7157,6393,757,Chihuahua,Namiquipa,29.25076,-107.408872,PRI.PT.PVEM.PNA,NA
08049,2849.0,810.0,331.0,1370.0,416.0,948.0,135.0,1479.0,394.0,1079.0,196.0,2027.0,23889,12998,833,12283,5721,6821,416,11606,5429,6177,10891,417,Chihuahua,Nonoava,27.472054,-106.735332,PAN,NA
08050,59337.0,17691.0,3686.0,30279.0,8822.0,21373.0,1916.0,29058.0,8869.0,20110.0,1770.0,41483.0,4915,3607,468,2478,1170,1853,234,2437,683,1754,1308,234,Chihuahua,Nuevo Casas Grandes,30.413986,-107.912103,PRI.PT.PVEM.PNA,NA
08051,7546.0,2402.0,441.0,3611.0,1174.0,2430.0,192.0,3935.0,1228.0,2702.0,249.0,5132.0,47932,32961,3362,24400,11448,16858,1517,23532,7429,16103,14971,1845,Chihuahua,Ocampo,28.193834,-108.366741,PAN,NA
08052,26304.0,7758.0,2073.0,13014.0,3807.0,8932.0,1008.0,13290.0,3951.0,9064.0,1065.0,17996.0,122821,77901,5538,62016,29330,39956,2716,60805,22860,37945,44920,2822,Chihuahua,Ojinaga,29.564501,-104.415665,PAN,NA
08053,4799.0,1508.0,449.0,2366.0,722.0,1624.0,196.0,2433.0,786.0,1628.0,253.0,3252.0,7769,4980,707,3985,1849,2564,332,3784,1368,2416,2789,375,Chihuahua,Praxedis G. Guerrero,31.372068,-106.005395,PRI.PT.PVEM.PNA,NA
08054,8012.0,2668.0,555.0,3936.0,1338.0,2546.0,257.0,4076.0,1330.0,2698.0,298.0,5244.0,29239,20314,2258,14888,6969,10488,1098,14351,4525,9826,8925,1160,Chihuahua,Riva Palacio,28.546008,-106.502632,PAN,NA
08055,16785.0,4826.0,1383.0,8259.0,2329.0,5921.0,625.0,8526.0,2497.0,6022.0,758.0,11943.0,5743,3988,405,2978,1323,2124,204,2765,901,1864,1755,201,Chihuahua,Rosales,28.186944,-105.554444,PRI.PT.PVEM.PNA,NA
08056,2235.0,535.0,340.0,1104.0,270.0,831.0,155.0,1131.0,265.0,860.0,185.0,1691.0,11906,6216,344,6036,2883,3266,190,5870,2920,2950,5690,154,Chihuahua,Rosario,27.319641,-106.295498,PRI.PT.PVEM.PNA,NA
08057,2290.0,468.0,437.0,1107.0,238.0,864.0,204.0,1183.0,230.0,949.0,233.0,1813.0,72967,46897,4568,37298,17666,24335,2266,35669,13107,22562,26070,2302,Chihuahua,San Francisco de Borja,27.901821,-106.684916,PAN,NA
08058,2983.0,781.0,376.0,1434.0,381.0,1049.0,179.0,1549.0,400.0,1143.0,197.0,2192.0,4262,2618,176,2096,1024,1316,80,2166,864,1302,1644,96,Chihuahua,San Francisco de Conchos,27.588552,-105.334641,PAN,NA
08059,4753.0,1157.0,509.0,2354.0,551.0,1778.0,256.0,2399.0,606.0,1769.0,253.0,3547.0,218893,129226,7643,111017,51198,66537,3800,107876,45187,62689,89667,3843,Chihuahua,San Francisco del Oro,26.858994,-105.85008,PAN,NA
08060,10427.0,2722.0,977.0,5244.0,1335.0,3869.0,509.0,5183.0,1387.0,3756.0,468.0,7625.0,12508,6836,667,6492,2913,3620,323,6016,2800,3216,5672,344,Chihuahua,Santa Bárbara,26.8021,-105.8181,PAN,NA
08061,3662.0,830.0,635.0,1754.0,397.0,1351.0,283.0,1908.0,433.0,1470.0,352.0,2821.0,92103,61268,5272,47014,21741,31443,2598,45089,15264,29825,30835,2674,Chihuahua,Satevó,27.956034,-106.107204,PAN,NA
08062,32325.0,9233.0,2643.0,16050.0,4541.0,11462.0,1279.0,16275.0,4692.0,11538.0,1364.0,23e3,18128,12064,1051,9084,4446,6052,476,9044,3032,6012,6064,575,Chihuahua,Saucillo,28.032674,-105.288032,PAN,NA
08063,6211.0,1615.0,727.0,2995.0,786.0,2160.0,335.0,3216.0,829.0,2338.0,392.0,4498.0,3682,2475,216,1844,898,1255,116,1838,618,1220,1207,100,Chihuahua,Temósachic,28.952758,-107.829839,PAN,NA
08064,1869.0,461.0,305.0,909.0,229.0,680.0,144.0,960.0,232.0,728.0,161.0,1408.0,48126,26659,1899,24271,11580,13385,936,23855,10581,13274,21467,963,Chihuahua,El Tule,27.053613,-106.266253,PRI.PT.PVEM.PNA,NA
08065,20386.0,7513.0,1258.0,10044.0,3661.0,6361.0,616.0,10342.0,3852.0,6469.0,642.0,12830.0,119826,77950,5666,61374,28015,40272,2563,58452,20774,37678,41876,3103,Chihuahua,Urique,27.212715,-107.914305,PRI.PT.PVEM.PNA,NA
08066,8200.0,2677.0,584.0,4050.0,1334.0,2714.0,267.0,4150.0,1343.0,2805.0,317.0,5519.0,22011,12325,752,11221,5091,6333,344,10790,4798,5992,9686,408,Chihuahua,Uruachi,27.867924,-108.215195,PAN,NA
08067,5105.0,1314.0,650.0,2469.0,631.0,1802.0,291.0,2636.0,683.0,1915.0,359.0,3717.0,12136,7472,595,6149,2909,3880,301,5987,2395,3592,4664,294,Chihuahua,Valle de Zaragoza,27.457132,-105.810994,PAN,NA
09002,414711.0,81374.0,39701.0,218658.0,40026.0,173831.0,23532.0,196053.0,41348.0,149891.0,16169.0,323722.0,400161,328098,48411,212830,95041,178263,29105,187331,37496,149835,72063,19306,Distrito Federal,Azcapotzalco,19.484103,-99.184361,NA,NA
09003,620416.0,113891.0,59056.0,327925.0,55820.0,260678.0,34544.0,292491.0,58071.0,223113.0,24512.0,483791.0,608479,510551,79947,324697,145562,276662,46856,283782,49893,233889,97928,33091,Distrito Federal,Coyoacán,19.350214,-99.162146,NA,NA
09004,186391.0,46935.0,9458.0,97749.0,23162.0,72349.0,5298.0,88642.0,23773.0,62649.0,4160.0,134998.0,199224,154572,12029,103370,45252,81935,6680,95854,23217,72637,44652,5349,Distrito Federal,Cuajimalpa de Morelos,19.35735,-99.299792,NA,NA
09005,1185772.0,257460.0,104807.0,614539.0,126952.0,480101.0,61161.0,571233.0,130508.0,433262.0,43646.0,913363.0,1164477,931999,129602,609337,279736,495740,74535,555140,118881,436259,232478,55067,Distrito Federal,Gustavo A. Madero,19.482945,-99.113471,NA,NA
09006,384326.0,79357.0,35813.0,201792.0,39304.0,158213.0,21048.0,182534.0,40053.0,138214.0,14765.0,296427.0,390348,315961,40781,206399,88422,168846,24155,183949,36834,147115,74387,16626,Distrito Federal,Iztacalco,19.395901,-99.097613,NA,NA
09007,1815786.0,451529.0,108765.0,934788.0,222212.0,701902.0,62118.0,880998.0,229317.0,640982.0,46647.0,1342884.0,1827868,1416567,146301,949503,435424,751310,82774,878365,213108,665257,411301,63527,Distrito Federal,Iztapalapa,19.359004,-99.092623,NA,NA
09008,239086.0,57801.0,16421.0,124594.0,28483.0,95250.0,9651.0,114492.0,29318.0,84325.0,6770.0,179575.0,243886,189655,21134,126787,58205,100427,11862,117099,27871,89228,54231,9272,Distrito Federal,La Magdalena Contreras,19.304898,-99.241516,NA,NA
09009,130582.0,37245.0,6659.0,66390.0,18132.0,47882.0,3579.0,64192.0,19113.0,44714.0,3080.0,92596.0,137927,101077,8057,70776,31781,52309,4390,67151,18383,48768,36850,3667,Distrito Federal,Milpa Alta,19.191249,-99.023372,NA,NA
09010,727034.0,163655.0,53672.0,380993.0,80674.0,295701.0,31488.0,346041.0,82981.0,258472.0,22184.0,554173.0,749982,598472,70914,394228,179130,316907,40409,355754,74189,281565,151510,30505,Distrito Federal,Álvaro Obregón,19.390806,-99.195413,NA,NA
09011,360265.0,96643.0,17565.0,185055.0,47187.0,136357.0,9982.0,175210.0,49456.0,124253.0,7583.0,260610.0,361593,278413,23112,188768,86879,146628,12511,172825,41040,131785,83180,10601,Distrito Federal,Tláhuac,19.270566,-99.004846,NA,NA
09012,650567.0,147049.0,43319.0,338428.0,72065.0,257860.0,24870.0,312139.0,74984.0,228658.0,18449.0,486518.0,677104,534082,59820,355979,160185,284865,33845,321125,71908,249217,143022,25975,Distrito Federal,Tlalpan,19.288275,-99.167126,NA,NA
09013,415007.0,100925.0,24598.0,209702.0,49483.0,157677.0,13919.0,205305.0,51442.0,151324.0,10679.0,309001.0,415933,317461,31664,216420,96922,167757,17610,199513,49809,149704,98472,14054,Distrito Federal,Xochimilco,19.263462,-99.104913,NA,NA
09014,385439.0,52645.0,42915.0,209029.0,25979.0,170121.0,27478.0,176410.0,26666.0,136847.0,15437.0,306968.0,417416,362957,57115,224409,97095,198019,35474,193007,28069,164938,54459,21641,Distrito Federal,Benito Juárez,19.371992,-99.157853,NA,NA
09015,531831.0,98671.0,48397.0,280106.0,48561.0,223068.0,29949.0,251725.0,50110.0,193139.0,18448.0,416207.0,532553,446281,57250,279315,125187,237810,35506,253238,44767,208471,86272,21744,Distrito Federal,Cuauhtémoc,19.441647,-99.151884,NA,NA
09016,372889.0,64574.0,36057.0,200222.0,31872.0,156741.0,22113.0,172667.0,32702.0,128372.0,13944.0,285113.0,364439,305509,44214,197354,83744,167995,26384,167085,29571,137514,58930,17830,Distrito Federal,Miguel Hidalgo,19.407269,-99.190754,NA,NA
09017,430978.0,87784.0,40652.0,227327.0,43366.0,177157.0,24581.0,203651.0,44418.0,152413.0,16071.0,329570.0,427263,347026,49650,226831,98094,187451,30333,200432,40857,159575,80237,19317,Distrito Federal,Venustiano Carranza,19.419262,-99.113701,NA,NA
10001,31401.0,9018.0,2864.0,15768.0,4417.0,11332.0,1411.0,15633.0,4601.0,11013.0,1453.0,22345.0,32852,23707,3291,16788,7595,12193,1656,16064,4550,11514,9145,1635,Durango,Canatlán,24.527263,-104.778374,NA,NA
10002,4122.0,1415.0,287.0,1957.0,658.0,1296.0,139.0,2165.0,757.0,1405.0,148.0,2701.0,4683,3092,305,2286,1128,1490,148,2397,795,1602,1591,157,Durango,Canelas,25.122971,-106.545633,NA,NA
10003,4530.0,1571.0,391.0,2286.0,796.0,1477.0,186.0,2244.0,775.0,1459.0,205.0,2936.0,4390,2962,435,2199,1060,1513,211,2191,742,1449,1428,224,Durango,Coneto de Comonfort,24.979125,-104.768917,NA,NA
10004,33664.0,10263.0,2893.0,16703.0,4982.0,11662.0,1390.0,16961.0,5281.0,11623.0,1503.0,23285.0,35415,24666,3114,17643,8271,12354,1515,17772,5460,12312,10749,1599,Durango,Cuencamé,24.870939,-103.698462,NA,NA
10005,582267.0,167001.0,32202.0,300565.0,82252.0,208882.0,17621.0,281702.0,84749.0,187505.0,14581.0,396387.0,654876,468709,40902,340048,158291,247773,23108,314828,93892,220936,186167,17794,Durango,Durango,24.023988,-104.670194,NA,NA
10006,10629.0,3287.0,1020.0,5339.0,1660.0,3672.0,471.0,5290.0,1627.0,3658.0,549.0,7330.0,10110,7041,1096,5144,2475,3571,521,4966,1496,3470,3069,575,Durango,General Simón Bolívar,24.689074,-103.225975,NA,NA
10007,327985.0,99294.0,17204.0,166249.0,48867.0,115553.0,9153.0,161736.0,50427.0,109487.0,8051.0,225040.0,342286,246033,21506,173867,80627,126670,11264,168419,49056,119363,96253,10242,Durango,Gómez Palacio,25.570107,-103.496417,NA,NA
10008,34052.0,9856.0,2677.0,17065.0,4761.0,12261.0,1324.0,16987.0,5095.0,11855.0,1353.0,24116.0,35380,25222,2942,18066,8282,13081,1471,17314,5173,12141,10158,1471,Durango,Guadalupe Victoria,24.446433,-104.12366,NA,NA
10009,10149.0,3075.0,929.0,4946.0,1545.0,3397.0,421.0,5203.0,1530.0,3666.0,508.0,7063.0,9851,7032,1002,4813,2319,3366,419,5038,1372,3666,2819,583,Durango,Guanaceví,25.931662,-105.954432,NA,NA
10010,4265.0,1081.0,545.0,2085.0,534.0,1529.0,237.0,2180.0,547.0,1611.0,308.0,3140.0,3838,2863,551,1910,902,1415,254,1928,480,1448,975,297,Durango,Hidalgo,26.251445,-104.913479,NA,NA
10011,5280.0,1334.0,854.0,2645.0,701.0,1943.0,401.0,2635.0,633.0,2e3,453.0,3943.0,4927,3665,834,2439,1174,1792,385,2488,615,1873,1262,449,Durango,Indé,25.912021,-105.223791,NA,NA
10012,141043.0,42804.0,8055.0,71306.0,20928.0,48630.0,4143.0,69737.0,21876.0,46110.0,3912.0,94740.0,153311,108126,10006,77154,37502,55271,5204,76157,23302,52855,45185,4802,Durango,Lerdo,25.536552,-103.524849,NA,NA
10013,25137.0,8405.0,1798.0,12588.0,4165.0,8353.0,809.0,12549.0,4240.0,8239.0,989.0,16592.0,26502,17821,1823,13337,6397,8993,834,13165,4337,8828,8681,989,Durango,Mapimí,25.833324,-103.848194,NA,NA
10014,33396.0,14198.0,1438.0,16882.0,6939.0,9765.0,726.0,16514.0,7259.0,9084.0,712.0,18849.0,39288,21862,1757,20111,9088,11502,900,19177,8817,10360,17426,857,Durango,Mezquital,23.47353,-104.396744,NA,NA
10015,12411.0,3709.0,1348.0,6249.0,1926.0,4313.0,618.0,6162.0,1783.0,4365.0,730.0,8678.0,12957,9026,1531,6510,3219,4495,737,6447,1916,4531,3931,794,Durango,Nazas,25.227777,-104.113803,NA,NA
10016,18488.0,5418.0,1959.0,9308.0,2641.0,6628.0,953.0,9180.0,2777.0,6367.0,1006.0,12995.0,19694,13918,2061,9861,4711,7041,981,9833,2956,6877,5776,1080,Durango,Nombre de Dios,23.848172,-104.244767,NA,NA
10017,9626.0,2527.0,1136.0,4671.0,1207.0,3463.0,505.0,4955.0,1320.0,3635.0,631.0,7098.0,9567,7213,1345,4722,2332,3601,586,4845,1233,3612,2354,759,Durango,Ocampo,26.441562,-105.506439,NA,NA
10018,11320.0,2896.0,1511.0,5652.0,1405.0,4238.0,719.0,5668.0,1491.0,4171.0,792.0,8409.0,11496,8650,1658,5826,2834,4396,822,5670,1416,4254,2846,836,Durango,El Oro,25.949324,-105.364866,NA,NA
10019,5208.0,1909.0,400.0,2526.0,958.0,1564.0,187.0,2682.0,951.0,1727.0,213.0,3291.0,5385,3509,364,2605,1243,1677,180,2780,948,1832,1876,184,Durango,Otáez,24.698689,-105.994058,NA,NA
10020,11927.0,3311.0,1221.0,6022.0,1667.0,4328.0,596.0,5905.0,1644.0,4232.0,625.0,8560.0,12290,9057,1566,6246,2918,4642,797,6044,1629,4415,3233,769,Durango,Pánuco de Coronado,24.401024,-104.319264,NA,NA
10021,10473.0,3162.0,1015.0,5164.0,1537.0,3625.0,478.0,5309.0,1625.0,3680.0,537.0,7305.0,10922,7684,1168,5504,2569,3865,539,5418,1599,3819,3238,629,Durango,Peñón Blanco,24.792509,-104.034267,NA,NA
10022,24918.0,7351.0,2274.0,12652.0,3618.0,8980.0,1082.0,12266.0,3733.0,8481.0,1192.0,17461.0,25241,18141,2405,12737,5965,9301,1156,12504,3664,8840,7100,1249,Durango,Poanas,23.975092,-104.044136,NA,NA
10023,49162.0,18815.0,2e3,24755.0,9293.0,15430.0,1005.0,24407.0,9522.0,14836.0,995.0,30266.0,50417,32523,2440,25441,11911,16684,1237,24976,9137,15839,17894,1203,Durango,Pueblo Nuevo,23.778151,-105.360192,NA,NA
10024,12788.0,3788.0,1338.0,6386.0,1833.0,4525.0,655.0,6402.0,1955.0,4419.0,683.0,8944.0,13554,9603,1690,6733,3179,4849,812,6821,2067,4754,3951,878,Durango,Rodeo,25.180719,-104.560444,NA,NA
10025,3433.0,849.0,555.0,1628.0,410.0,1216.0,242.0,1805.0,439.0,1364.0,313.0,2580.0,3205,2503,586,1492,811,1155,250,1713,365,1348,702,336,Durango,San Bernardo,26.000787,-105.523257,NA,NA
10026,19691.0,7101.0,1096.0,9652.0,3560.0,6067.0,512.0,10039.0,3541.0,6472.0,584.0,12539.0,19383,13005,1256,9447,4526,6313,576,9936,3244,6692,6378,680,Durango,San Dimas,24.102182,-105.931245,NA,NA
10027,5947.0,1862.0,659.0,3017.0,929.0,2085.0,336.0,2930.0,933.0,1993.0,323.0,4078.0,5564,3942,760,2827,1370,2037,410,2737,832,1905,1622,350,Durango,San Juan de Guadalupe,24.630853,-102.782055,NA,NA
10028,11855.0,3498.0,1262.0,6004.0,1754.0,4204.0,611.0,5851.0,1744.0,4061.0,651.0,8265.0,12747,8986,1367,6452,2948,4528,659,6295,1837,4458,3761,708,Durango,San Juan del Río,24.778255,-104.459226,NA,NA
10029,2181.0,661.0,268.0,1069.0,327.0,739.0,130.0,1112.0,334.0,776.0,138.0,1515.0,2077,1469,280,1031,515,723,126,1046,300,746,608,154,Durango,San Luis del Cordero,25.417649,-104.277786,NA,NA
10030,1709.0,448.0,200.0,834.0,231.0,600.0,90.0,875.0,217.0,655.0,110.0,1255.0,1478,1084,194,703,342,512,87,775,203,572,394,107,Durango,San Pedro del Gallo,25.565864,-104.292834,NA,NA
10031,7003.0,2104.0,703.0,3503.0,1050.0,2448.0,325.0,3500.0,1054.0,2441.0,378.0,4889.0,7089,5081,763,3573,1779,2580,368,3516,1015,2501,2008,395,Durango,Santa Clara,24.475444,-103.357222,NA,NA
10032,44966.0,13929.0,3425.0,22584.0,6766.0,15521.0,1687.0,22382.0,7163.0,14931.0,1738.0,30452.0,48482,34203,4238,24318,11820,17264,2083,24164,7225,16939,14279,2155,Durango,Santiago Papasquiaro,25.03908,-105.420945,NA,NA
10033,6761.0,2059.0,711.0,3521.0,1047.0,2469.0,358.0,3240.0,1012.0,2224.0,353.0,4693.0,6343,4527,671,3297,1561,2394,343,3046,913,2133,1816,328,Durango,Súchil,23.622163,-103.92187,NA,NA
10034,26368.0,9949.0,1432.0,12666.0,4884.0,7773.0,644.0,13702.0,5065.0,8626.0,788.0,16399.0,26709,17195,1527,12915,6521,8150,707,13794,4749,9045,9514,820,Durango,Tamazula,24.970316,-106.966602,NA,NA
10035,10745.0,3168.0,1241.0,5463.0,1565.0,3841.0,628.0,5282.0,1603.0,3624.0,613.0,7465.0,11060,7888,1293,5497,2726,3968,650,5563,1643,3920,3172,643,Durango,Tepehuanes,25.343209,-105.723002,NA,NA
10036,22244.0,6766.0,1753.0,11107.0,3267.0,7764.0,881.0,11137.0,3499.0,7563.0,872.0,15327.0,22895,16038,2153,11295,5557,8067,1080,11600,3629,7971,6857,1073,Durango,Tlahualilo,26.107386,-103.439236,NA,NA
10037,8581.0,2989.0,551.0,4186.0,1473.0,2711.0,268.0,4395.0,1516.0,2877.0,283.0,5588.0,9351,6173,590,4526,2185,2933,279,4825,1585,3240,3178,311,Durango,Topia,25.209023,-106.571196,NA,NA
10038,21117.0,6223.0,1666.0,10911.0,3129.0,7765.0,830.0,10206.0,3094.0,7098.0,836.0,14863.0,21861,15577,1784,11264,5433,8123,881,10597,3143,7454,6284,903,Durango,Vicente Guerrero,23.731111,-103.987778,NA,NA
10039,26092.0,8639.0,2107.0,13130.0,4213.0,8895.0,1012.0,12962.0,4426.0,8516.0,1095.0,17411.0,27278,18768,2255,13745,6649,9536,1128,13533,4301,9232,8510,1127,Durango,Nuevo Ideal,24.888313,-105.074205,NA,NA
11001,84332.0,26871.0,6339.0,44051.0,13250.0,30735.0,3284.0,40281.0,13621.0,26600.0,3055.0,57335.0,90990,63812,6934,46904,21544,33677,3634,44086,13951,30135,27178,3300,Guanajuato,Abasolo,20.4509,-101.528361,NA,NA
11002,109030.0,30548.0,10875.0,57227.0,15091.0,41855.0,5724.0,51803.0,15457.0,36073.0,5151.0,77928.0,112125,83592,12680,58313,26983,44213,6570,53812,14433,39379,28533,6110,Guanajuato,Acámbaro,20.03538,-100.719326,NA,NA
11003,160383.0,53703.0,9930.0,84505.0,26600.0,57459.0,5367.0,75878.0,27103.0,48340.0,4563.0,105799.0,171857,120039,13111,89399,38659,63785,6816,82458,26204,56254,51818,6295,Guanajuato,San Miguel de Allende,20.904013,-100.713381,NA,NA
11004,64433.0,20738.0,4090.0,33256.0,10206.0,23014.0,2103.0,31177.0,10532.0,20613.0,1987.0,43627.0,68455,47651,4743,35560,16208,25028,2407,32895,10272,22623,20804,2336,Guanajuato,Apaseo el Alto,20.457171,-100.621626,NA,NA
11005,85319.0,27885.0,4816.0,44281.0,13677.0,30547.0,2553.0,41038.0,14208.0,26768.0,2263.0,57315.0,92605,64159,5360,48198,21442,34082,2958,44407,14330,30077,28446,2402,Guanajuato,Apaseo el Grande,20.545284,-100.688217,NA,NA
11006,5610.0,1882.0,669.0,2862.0,927.0,1933.0,333.0,2748.0,955.0,1793.0,336.0,3726.0,5128,3637,673,2647,1309,1878,345,2481,722,1759,1491,328,Guanajuato,Atarjea,21.26704,-99.720267,NA,NA
11007,468469.0,136659.0,25015.0,243445.0,67293.0,172926.0,13659.0,225024.0,69366.0,152417.0,11356.0,325343.0,494304,357959,29033,256655,116585,189337,15683,237649,69027,168622,136345,13350,Guanajuato,Celaya,20.521524,-100.813573,NA,NA
11008,37145.0,11726.0,3259.0,19599.0,5753.0,13828.0,1660.0,17546.0,5973.0,11561.0,1599.0,25389.0,38832,27304,3912,20223,9468,14595,2037,18609,5900,12709,11528,1875,Guanajuato,Manuel Doblado,20.727518,-101.95279,NA,NA
11009,77794.0,26592.0,4639.0,41364.0,13309.0,28024.0,2503.0,36430.0,13283.0,23115.0,2136.0,51139.0,82572,56399,5185,43762,19721,30479,2852,38810,12890,25920,26173,2333,Guanajuato,Comonfort,20.720048,-100.761202,NA,NA
11010,11691.0,3639.0,1066.0,6229.0,1797.0,4397.0,574.0,5462.0,1842.0,3584.0,492.0,7981.0,12068,8515,1200,6381,3022,4623,663,5687,1795,3892,3553,537,Guanajuato,Coroneo,20.198611,-100.364444,NA,NA
11011,88397.0,26013.0,5742.0,45747.0,12857.0,32780.0,3042.0,42650.0,13156.0,29380.0,2700.0,62160.0,95961,69991,6968,49968,22875,37066,3779,45993,13068,32925,25970,3189,Guanajuato,Cortazar,20.483506,-100.963729,NA,NA
11012,27308.0,8387.0,2375.0,14237.0,4035.0,10128.0,1261.0,13071.0,4352.0,8650.0,1114.0,18778.0,28320,20096,2574,14804,6639,10828,1413,13516,4248,9268,8224,1161,Guanajuato,Cuerámaro,20.626478,-101.670386,NA,NA
11013,23324.0,8471.0,1321.0,12195.0,4132.0,8059.0,703.0,11129.0,4339.0,6787.0,618.0,14846.0,24219,16216,1446,12697,5814,8625,760,11522,3931,7591,8003,686,Guanajuato,Doctor Mora,21.14264,-100.318949,NA,NA
11014,148173.0,51987.0,8649.0,78282.0,25724.0,52180.0,4656.0,69891.0,26263.0,43262.0,3993.0,95442.0,152113,102505,9826,81477,36274,56417,5260,70636,24548,46088,49608,4566,Guanajuato,Dolores Hidalgo Cuna de la Independencia Nacional,21.1592,-100.917236,NA,NA
11015,171709.0,49150.0,9036.0,88879.0,24410.0,62957.0,5068.0,82830.0,24740.0,56582.0,3968.0,119539.0,184239,135482,11906,94807,43494,70651,6609,89432,24601,64831,48757,5297,Guanajuato,Guanajuato,21.016098,-101.253621,NA,NA
11016,20117.0,6243.0,1880.0,10696.0,3131.0,7537.0,948.0,9421.0,3112.0,6281.0,932.0,13818.0,21638,15504,2081,11385,5193,8302,1065,10253,3051,7202,6134,1016,Guanajuato,Huanímaro,20.368274,-101.496867,NA,NA
11017,529440.0,162705.0,29544.0,274656.0,80196.0,193034.0,16141.0,254784.0,82509.0,170870.0,13403.0,363904.0,574344,407732,34351,296671,135918,215226,18858,277673,85167,192506,166612,15493,Guanajuato,Irapuato,20.672801,-101.348117,NA,NA
11018,36584.0,10913.0,2964.0,18923.0,5441.0,13467.0,1492.0,17661.0,5472.0,12177.0,1472.0,25644.0,38412,27848,3421,19496,8929,14338,1704,18916,5406,13510,10564,1717,Guanajuato,Jaral del Progreso,20.376517,-101.063975,NA,NA
11019,50832.0,16262.0,4710.0,27277.0,8126.0,19101.0,2406.0,23555.0,8136.0,15373.0,2304.0,34474.0,49053,34487,5052,26387,11984,19040,2588,22666,7219,15447,14566,2464,Guanajuato,Jerécuaro,20.150034,-100.510528,NA,NA
11020,1436480.0,442668.0,66363.0,734699.0,217571.0,512752.0,36487.0,701781.0,225097.0,472320.0,29876.0,985072.0,1578626,1127468,79405,803219,376676,582834,43442,775407,230773,544634,451158,35963,Guanajuato,León,21.121972,-101.6832,NA,NA
11021,49364.0,12667.0,4539.0,26082.0,6250.0,19534.0,2462.0,23282.0,6417.0,16570.0,2077.0,36104.0,50377,38440,5836,26372,11962,20466,3209,24005,6031,17974,11937,2627,Guanajuato,Moroleón,20.13187,-101.189209,NA,NA
11022,22683.0,8101.0,1634.0,11813.0,4066.0,7733.0,829.0,10870.0,4035.0,6823.0,805.0,14556.0,23528,15633,1867,12252,5547,8358,959,11276,4001,7275,7895,908,Guanajuato,Ocampo,21.648492,-101.478016,NA,NA
11023,149936.0,46139.0,12304.0,79385.0,22827.0,56415.0,6525.0,70551.0,23312.0,47109.0,5779.0,103524.0,150570,107591,13682,78521,36369,57469,7260,72049,21927,50122,42979,6422,Guanajuato,Pénjamo,20.431795,-101.725044,NA,NA
11024,11169.0,3241.0,1087.0,5968.0,1622.0,4335.0,572.0,5201.0,1619.0,3573.0,515.0,7908.0,11872,8591,1178,6211,2832,4604,643,5661,1674,3987,3281,535,Guanajuato,Pueblo Nuevo,20.525957,-101.370847,NA,NA
11025,68795.0,23805.0,3002.0,35013.0,11734.0,23186.0,1533.0,33782.0,12071.0,21617.0,1469.0,44803.0,79798,54022,3951,40131,19654,27770,2049,39667,13415,26252,25776,1902,Guanajuato,Purísima del Rincón,21.029579,-101.878099,NA,NA
11026,56655.0,18772.0,3880.0,29381.0,9307.0,20045.0,2071.0,27274.0,9465.0,17783.0,1809.0,37828.0,59879,41801,4446,30887,14175,21919,2492,28992,9110,19882,18078,1954,Guanajuato,Romita,20.871215,-101.517117,NA,NA
11027,260732.0,72927.0,16857.0,134378.0,35876.0,97712.0,8915.0,126354.0,37051.0,88534.0,7942.0,186246.0,273271,204091,20843,141910,66183,107386,11321,131361,34656,96705,69180,9522,Guanajuato,Salamanca,20.568681,-101.199915,NA,NA
11028,97054.0,26794.0,10119.0,51169.0,13200.0,37827.0,5344.0,45885.0,13594.0,32150.0,4775.0,69977.0,100391,75040,11641,52847,24118,40035,6140,47544,12539,35005,25351,5501,Guanajuato,Salvatierra,20.216118,-100.88136,NA,NA
11029,37103.0,13325.0,2693.0,19817.0,6522.0,13278.0,1439.0,17286.0,6803.0,10469.0,1254.0,23747.0,39668,26802,3128,21418,9479,14971,1736,18250,6419,11831,12866,1392,Guanajuato,San Diego de la Unión,21.466387,-100.873316,NA,NA
11030,106952.0,38538.0,6987.0,55612.0,19120.0,36451.0,3627.0,51340.0,19418.0,31883.0,3360.0,68334.0,113109,75046,8365,58617,27424,40084,4533,54492,19530,34962,38063,3832,Guanajuato,San Felipe,21.479336,-101.215945,NA,NA
11031,113570.0,36829.0,6335.0,58544.0,18238.0,39844.0,3432.0,55026.0,18591.0,35972.0,2903.0,75816.0,119510,84055,7020,62169,29039,44265,3993,57341,17551,39790,35455,3027,Guanajuato,San Francisco del Rincón,21.018681,-101.858518,NA,NA
11032,72411.0,25506.0,3515.0,37774.0,12638.0,25094.0,1884.0,34637.0,12868.0,21727.0,1631.0,46821.0,78794,52804,3881,40853,18778,28114,2167,37941,13251,24690,25990,1714,Guanajuato,San José Iturbide,21.000822,-100.38572,NA,NA
11033,115656.0,42050.0,6120.0,60930.0,20791.0,40059.0,3407.0,54726.0,21259.0,33392.0,2713.0,73451.0,121027,81867,7301,64109,29033,44610,4096,56918,19661,37257,39160,3205,Guanajuato,San Luis de la Paz,21.298816,-100.515126,NA,NA
11034,5120.0,1781.0,481.0,2719.0,865.0,1838.0,259.0,2401.0,916.0,1470.0,222.0,3308.0,5261,3629,531,2745,1166,1943,297,2516,830,1686,1632,234,Guanajuato,Santa Catarina,21.139878,-100.066913,NA,NA
11035,79214.0,25681.0,4645.0,41293.0,12768.0,28435.0,2449.0,37921.0,12913.0,24917.0,2196.0,53352.0,83060,56754,5159,43436,20211,30349,2827,39624,13219,26405,26306,2332,Guanajuato,Santa Cruz de Juventino Rosas,20.6432,-100.994037,NA,NA
11036,6670.0,1689.0,908.0,3559.0,860.0,2693.0,460.0,3111.0,829.0,2276.0,448.0,4969.0,6824,5181,933,3565,1607,2768,485,3259,846,2413,1643,448,Guanajuato,Santiago Maravatío,20.172407,-100.995226,NA,NA
11037,173024.0,58391.0,8822.0,89076.0,29073.0,59764.0,4704.0,83948.0,29318.0,54388.0,4118.0,114152.0,189567,129398,10780,96618,45111,66751,5850,92949,30302,62647,60169,4930,Guanajuato,Silao,20.94445,-101.426216,NA,NA
11038,11641.0,3354.0,1323.0,6130.0,1670.0,4444.0,674.0,5511.0,1684.0,3813.0,649.0,8257.0,12256,8924,1494,6471,2978,4808,796,5785,1669,4116,3332,698,Guanajuato,Tarandacuao,20.003968,-100.516329,NA,NA
11039,35571.0,9907.0,3656.0,18596.0,4857.0,13670.0,1864.0,16975.0,5050.0,11861.0,1792.0,25531.0,34263,25177,3502,17513,7881,13113,1757,16750,4686,12064,9086,1745,Guanajuato,Tarimoro,20.288541,-100.755942,NA,NA
11040,18175.0,6643.0,1111.0,9410.0,3315.0,6079.0,631.0,8765.0,3328.0,5423.0,480.0,11502.0,18960,12146,1326,9944,4592,6662,784,9016,3532,5484,6814,542,Guanajuato,Tierra Blanca,21.100003,-100.159154,NA,NA
11041,59305.0,16605.0,4183.0,30974.0,8251.0,22377.0,2259.0,28331.0,8354.0,19642.0,1924.0,42019.0,62761,46608,5130,32608,15088,24678,2744,30153,8223,21930,16153,2386,Guanajuato,Uriangato,20.141012,-101.178051,NA,NA
11042,141058.0,41647.0,11380.0,74212.0,20719.0,53316.0,5985.0,66846.0,20928.0,45750.0,5395.0,99066.0,142672,104541,13472,75391,33729,56096,7157,67281,18836,48445,38131,6315,Guanajuato,Valle de Santiago,20.391322,-101.18143,NA,NA
11043,19820.0,7060.0,1720.0,10455.0,3518.0,6931.0,943.0,9365.0,3542.0,5817.0,777.0,12748.0,20166,13636,1792,10740,5115,7435,990,9426,3225,6201,6530,802,Guanajuato,Victoria,21.212172,-100.215936,NA,NA
11044,55782.0,17729.0,3103.0,28877.0,8717.0,20064.0,1685.0,26905.0,9012.0,17795.0,1418.0,37859.0,58830,41244,3419,30280,13665,21589,1829,28550,8895,19655,17586,1590,Guanajuato,Villagrán,20.511372,-100.996503,NA,NA
11045,11560.0,4252.0,1125.0,6026.0,2110.0,3915.0,573.0,5534.0,2142.0,3391.0,552.0,7306.0,11639,7740,1300,6163,2843,4192,671,5476,1928,3548,3899,629,Guanajuato,Xichú,21.298608,-100.059612,NA,NA
11046,70782.0,20712.0,6891.0,37344.0,10178.0,26924.0,3596.0,33438.0,10534.0,22665.0,3295.0,49589.0,69763,51373,8159,36584,16338,27575,4313,33179,9381,23798,18390,3846,Guanajuato,Yuriria,20.212743,-101.130933,NA,NA
12001,789971.0,224396.0,47404.0,407695.0,109917.0,294409.0,26330.0,382276.0,114479.0,264416.0,21074.0,558825.0,810669,597736,61534,424857,191890,321457,34465,385812,109533,276279,212933,27069,Guerrero,Acapulco de Juárez,16.861867,-99.886558,NA,PRI
12002,25027.0,10438.0,1713.0,13279.0,5215.0,8052.0,933.0,11748.0,5223.0,6511.0,780.0,14563.0,26858,16862,2280,14315,6520,9287,1250,12543,4968,7575,9996,1030,Guerrero,Ahuacuotzingo,17.714089,-98.934908,NA,PRI
12003,38203.0,13132.0,3373.0,19861.0,6491.0,13321.0,1788.0,18342.0,6641.0,11650.0,1585.0,24971.0,38134,25613,3261,19542,8933,13392,1755,18592,6371,12221,12521,1506,Guerrero,Ajuchitlán del Progreso,18.159555,-100.496057,NA,PRI
12004,18971.0,8623.0,1352.0,10054.0,4294.0,5724.0,692.0,8917.0,4329.0,4550.0,660.0,10274.0,19368,11179,1492,10266,4399,6147,742,9102,4070,5032,8189,750,Guerrero,Alcozauca de Guerrero,17.463524,-98.383888,NA,PRD
12005,6637.0,2421.0,531.0,3523.0,1175.0,2333.0,274.0,3114.0,1246.0,1853.0,257.0,4186.0,6657,4482,588,3494,1562,2401,289,3163,1082,2081,2175,299,Guerrero,Alpoyeca,17.670064,-98.513239,NA,PRD
12006,12389.0,4283.0,1276.0,6440.0,2140.0,4247.0,647.0,5949.0,2143.0,3753.0,629.0,8e3,11159,7564,1421,5801,2611,4008,738,5358,1802,3556,3595,683,Guerrero,Apaxtla,18.130078,-99.932314,NA,PRI
12007,32181.0,9932.0,3014.0,16537.0,4908.0,11578.0,1577.0,15644.0,5024.0,10573.0,1437.0,22151.0,31406,22350,3260,16187,7143,11742,1766,15219,4611,10608,9056,1494,Guerrero,Arcelia,18.315825,-100.283952,NA,PRD
12008,8390.0,2814.0,931.0,4375.0,1416.0,2938.0,492.0,4015.0,1398.0,2597.0,439.0,5535.0,8731,6056,1017,4534,2098,3163,529,4197,1304,2893,2675,488,Guerrero,Atenango del Río,18.104343,-99.107803,NA,PRI
12009,5706.0,2420.0,398.0,2978.0,1226.0,1752.0,201.0,2728.0,1194.0,1533.0,197.0,3285.0,5476,3308,464,2904,1322,1821,235,2572,1085,1487,2168,229,Guerrero,Atlamajalcingo del Monte,17.311655,-98.605085,NA,PRD
12010,26341.0,11688.0,1432.0,13667.0,5842.0,7815.0,774.0,12674.0,5846.0,6819.0,658.0,14634.0,27212,15747,1528,14045,6383,8397,863,13167,5817,7350,11465,665,Guerrero,Atlixtac,17.563679,-98.933232,NA,PRD
12011,61316.0,19553.0,5357.0,31203.0,9576.0,21563.0,2772.0,30113.0,9977.0,20078.0,2585.0,41641.0,60382,42430,6008,30746,13877,22027,3132,29636,9233,20403,17952,2876,Guerrero,Atoyac de Álvarez,17.212739,-100.433129,NA,PRI
12012,62690.0,25949.0,3058.0,31984.0,12793.0,19174.0,1574.0,30706.0,13156.0,17534.0,1484.0,36708.0,69716,42891,3677,35866,16653,22553,1877,33850,13512,20338,26825,1800,Guerrero,Ayutla de los Libres,16.965287,-99.097384,NA,PRD
12013,14429.0,4722.0,1409.0,7327.0,2333.0,4966.0,708.0,7102.0,2389.0,4685.0,701.0,9651.0,14865,10365,1574,7489,3567,5273,783,7376,2284,5092,4500,791,Guerrero,Azoyú,16.73296,-98.601091,NA,PRD
12014,15019.0,4031.0,1813.0,7656.0,2026.0,5625.0,930.0,7363.0,2005.0,5353.0,883.0,10978.0,15318,11597,1991,7869,3620,6001,1041,7449,1853,5596,3721,950,Guerrero,Benito Juárez,17.13637,-100.468668,NA,PRI
12015,12688.0,3819.0,1387.0,6496.0,1865.0,4627.0,738.0,6192.0,1954.0,4233.0,649.0,8860.0,13286,9718,1592,6784,3192,5056,860,6502,1840,4662,3568,732,Guerrero,Buenavista de Cuéllar,18.457887,-99.405342,NA,PRI
12016,13025.0,4661.0,1101.0,6393.0,2283.0,4089.0,549.0,6632.0,2378.0,4235.0,552.0,8324.0,12725,8620,1154,6239,2999,4206,566,6486,2072,4414,4105,588,Guerrero,Coahuayutla de José María Izazaga,18.316395,-101.734611,NA,PVEM
12017,14707.0,4443.0,1838.0,7647.0,2238.0,5399.0,942.0,7060.0,2205.0,4848.0,896.0,10247.0,13457,9702,1758,6907,3315,5092,939,6550,1940,4610,3755,819,Guerrero,Cocula,18.235866,-99.66119,NA,PRD
12018,13636.0,4629.0,1208.0,6919.0,2307.0,4594.0,630.0,6717.0,2322.0,4370.0,578.0,8964.0,14304,9876,1344,7311,3456,5060,710,6993,2177,4816,4428,634,Guerrero,Copala,16.608759,-98.978624,NA,PRD
12019,14456.0,5692.0,975.0,7596.0,2866.0,4722.0,515.0,6860.0,2826.0,4027.0,460.0,8749.0,14866,9496,1049,7754,3518,5086,561,7112,2702,4410,5370,488,Guerrero,Copalillo,18.034151,-99.041724,NA,PRI
12020,18855.0,8266.0,1177.0,9806.0,4118.0,5642.0,617.0,9049.0,4148.0,4859.0,560.0,10501.0,20192,11731,1365,10673,4695,6474,738,9519,4262,5257,8461,627,Guerrero,Copanatoyac,17.461845,-98.713463,NA,PRI
12021,73460.0,23634.0,5710.0,37500.0,11723.0,25743.0,3003.0,35960.0,11911.0,24011.0,2707.0,49754.0,76306,53446,6636,38850,18490,27753,3536,37456,11763,25693,22860,3100,Guerrero,Coyuca de Benítez,17.009002,-100.089367,NA,PRI
12022,42069.0,12234.0,4031.0,20220.0,5969.0,13783.0,2029.0,21849.0,6265.0,13305.0,2002.0,27088.0,39002,27453,4441,19883,9268,14066,2271,19119,5732,13387,11549,2170,Guerrero,Coyuca de Catalán,18.331019,-100.698566,NA,PRI
12023,25922.0,9243.0,1951.0,12978.0,4557.0,8402.0,1014.0,12944.0,4686.0,8238.0,937.0,16640.0,27266,18063,2177,13624,6366,9140,1121,13642,4719,8923,9203,1056,Guerrero,Cuajinicuilapa,16.471986,-98.416745,NA,PRD
12024,7007.0,2674.0,568.0,3663.0,1328.0,2323.0,303.0,3344.0,1346.0,1987.0,265.0,4310.0,7649,4989,633,3897,1796,2589,323,3752,1352,2400,2660,310,Guerrero,Cualác,17.742762,-98.660728,NA,PRI
12025,15115.0,5579.0,1314.0,7561.0,2765.0,4794.0,668.0,7554.0,2814.0,4736.0,646.0,9530.0,16415,10728,1480,8276,3840,5394,767,8139,2805,5334,5687,713,Guerrero,Cuautepec,16.749003,-99.001546,NA,PRD
12026,9166.0,2897.0,1237.0,4723.0,1432.0,3284.0,656.0,4443.0,1465.0,2974.0,581.0,6258.0,8559,6033,1275,4348,2070,3122,682,4211,1300,2911,2526,593,Guerrero,Cuetzala del Progreso,18.134141,-99.831486,NA,PRI
12027,21388.0,6234.0,2590.0,10860.0,3089.0,7725.0,1314.0,10528.0,3145.0,7333.0,1276.0,15058.0,19746,14473,2727,10099,4749,7395,1375,9647,2569,7078,5273,1352,Guerrero,Cutzamala de Pinzón,18.465244,-100.578513,NA,PRD
12028,120790.0,46596.0,7351.0,62850.0,23267.0,39427.0,4044.0,57940.0,23329.0,34455.0,3307.0,73882.0,129867,82474,8614,69219,30811,45456,5016,60648,23630,37018,47393,3598,Guerrero,Chilapa de Álvarez,17.594232,-99.177682,NA,PRI
12029,241717.0,73310.0,11551.0,126274.0,36512.0,88816.0,6394.0,115443.0,36798.0,77692.0,5157.0,166508.0,273106,195758,15098,143037,61888,104845,8224,130069,39156,90913,77348,6874,Guerrero,Chilpancingo de los Bravo,17.551649,-99.501063,NA,PRI
12030,20175.0,7245.0,1509.0,10208.0,3586.0,6603.0,816.0,9967.0,3659.0,6292.0,693.0,12895.0,20855,14033,1695,10569,4835,7215,925,10286,3468,6818,6822,770,Guerrero,Florencio Villarreal,16.723881,-99.123787,NA,PRI
12031,6301.0,2096.0,802.0,3259.0,1015.0,2244.0,430.0,3042.0,1081.0,1960.0,372.0,4204.0,5780,4010,798,2991,1385,2121,454,2789,900,1889,1770,344,Guerrero,General Canuto A. Neri,18.418485,-100.072052,NA,PRD
12032,36586.0,15691.0,2034.0,18238.0,7762.0,10460.0,1030.0,18348.0,7929.0,10409.0,1004.0,20869.0,37340,22475,2157,18965,8897,11428,1061,18375,7328,11047,14865,1096,Guerrero,General Heliodoro Castillo,17.789448,-99.978318,NA,MC
12033,14393.0,4543.0,1348.0,7570.0,2250.0,5246.0,710.0,6823.0,2293.0,4456.0,638.0,9702.0,15287,10666,1492,8113,3770,5839,807,7174,2347,4827,4621,685,Guerrero,Huamuxtitlán,17.802174,-98.565287,NA,PRI
12034,37364.0,11427.0,4009.0,19429.0,5645.0,13758.0,2134.0,17935.0,5782.0,12129.0,1875.0,25887.0,37094,26811,4810,19156,8795,14158,2592,17938,5285,12653,10283,2218,Guerrero,Huitzuco de los Figueroa,18.30598,-99.334303,NA,PRI
12035,140363.0,40724.0,9733.0,72752.0,19946.0,52299.0,5335.0,67611.0,20778.0,46330.0,4398.0,98629.0,151660,109828,12354,78572,35428,58614,6834,73088,21874,51214,41832,5520,Guerrero,Iguala de la Independencia,18.344549,-99.538368,NA,PRI
12036,10815.0,4158.0,720.0,5525.0,2047.0,3474.0,354.0,5290.0,2111.0,3178.0,366.0,6652.0,11383,7370,783,5794,2751,3838,395,5589,2057,3532,4013,388,Guerrero,Igualapa,16.743713,-98.476618,NA,PRI
12037,6603.0,1966.0,861.0,3455.0,962.0,2473.0,482.0,3148.0,1004.0,2125.0,379.0,4598.0,6179,4484,845,3241,1517,2419,481,2938,873,2065,1695,364,Guerrero,Ixcateopan de Cuauhtémoc,18.502452,-99.793569,NA,PRD
12038,118211.0,35101.0,4823.0,59897.0,17267.0,42345.0,2533.0,58314.0,17834.0,40200.0,2290.0,82545.0,124824,90509,6706,63888,29666,47034,3349,60936,17461,43475,34315,3357,Guerrero,Zihuatanejo de Azueta,17.650458,-101.548176,NA,PRI
12039,24364.0,7804.0,1988.0,12415.0,3836.0,8571.0,1008.0,11949.0,3968.0,7971.0,980.0,16542.0,24890,17693,2213,12864,5969,9221,1124,12026,3554,8472,7197,1089,Guerrero,Juan R. Escudero,17.169004,-99.522047,NA,PRD
12040,24720.0,9149.0,1581.0,12489.0,4516.0,7966.0,814.0,12231.0,4633.0,7595.0,767.0,15561.0,26342,17365,1865,13430,6556,8936,977,12912,4483,8429,8977,888,Guerrero,Leonardo Bravo,17.660802,-99.677341,NA,PRD
12041,29599.0,13384.0,1922.0,15489.0,6678.0,8796.0,1035.0,14110.0,6706.0,7386.0,887.0,16182.0,25584,15046,1775,13553,6091,8276,966,12031,5261,6770,10538,809,Guerrero,Malinaltepec,17.244628,-98.671108,NA,PRI
12042,17702.0,6676.0,1233.0,9198.0,3249.0,5935.0,677.0,8504.0,3427.0,5061.0,556.0,10996.0,18526,11774,1390,9724,4352,6382,782,8802,3410,5392,6752,608,Guerrero,Mártir de Cuilapan,17.741925,-99.329341,NA,PT
12043,18976.0,9307.0,1164.0,9962.0,4701.0,5258.0,622.0,9014.0,4606.0,4403.0,542.0,9661.0,19456,10560,1196,10264,4656,5754,652,9192,4386,4806,8896,544,Guerrero,Metlatónoc,17.195372,-98.407099,NA,PRI
12044,11376.0,3551.0,1074.0,5759.0,1735.0,4017.0,569.0,5617.0,1816.0,3793.0,505.0,7810.0,12752,8852,1244,6567,3097,4608,658,6185,1941,4244,3900,586,Guerrero,Mochitlán,17.472358,-99.371294,NA,PRD
12045,24723.0,9490.0,1736.0,12845.0,4726.0,8089.0,896.0,11878.0,4764.0,7081.0,840.0,15170.0,25483,16461,1897,13200,6148,8779,1017,12283,4601,7682,9022,880,Guerrero,Olinalá,17.778332,-98.741256,NA,PVEM
12046,61306.0,22987.0,3516.0,31415.0,11324.0,20054.0,1885.0,29891.0,11663.0,18187.0,1631.0,38241.0,67641,45026,4183,34957,16197,23687,2198,32684,11345,21339,22615,1985,Guerrero,Ometepec,16.685089,-98.404421,NA,PRI
12047,6978.0,2476.0,663.0,3763.0,1218.0,2545.0,371.0,3215.0,1258.0,1956.0,292.0,4501.0,6883,4602,687,3663,1601,2519,392,3220,1137,2083,2281,295,Guerrero,Pedro Ascencio Alquisiras,18.512364,-99.887018,NA,PRD
12048,44979.0,14900.0,3201.0,22582.0,7147.0,15391.0,1645.0,22397.0,7753.0,14598.0,1556.0,29989.0,44263,31333,3653,22533,10351,16137,1964,21730,6534,15196,12930,1689,Guerrero,Petatlán,17.538207,-101.274552,NA,PRI
12049,11558.0,3702.0,1096.0,5961.0,1845.0,4114.0,570.0,5597.0,1857.0,3738.0,526.0,7852.0,12900,9062,1325,6621,3091,4767,702,6279,1984,4295,3838,623,Guerrero,Pilcaya,18.747584,-99.676175,NA,PRD
12050,37035.0,11430.0,2506.0,19114.0,5636.0,13343.0,1343.0,17921.0,5794.0,12001.0,1163.0,25344.0,37494,26712,2897,19420,8971,14221,1486,18074,5583,12491,10782,1411,Guerrero,Pungarabato,18.362273,-100.668241,NA,PRI
12051,34728.0,13470.0,2651.0,17873.0,6796.0,11050.0,1369.0,16855.0,6674.0,10155.0,1282.0,21205.0,35926,22956,2795,18316,8407,11990,1417,17610,6644,10966,12970,1378,Guerrero,Quechultenango,17.409167,-99.240833,NA,PRD
12052,42360.0,17413.0,2406.0,21493.0,8736.0,12692.0,1207.0,20867.0,8677.0,12120.0,1199.0,24812.0,43671,26594,2667,22304,10214,13857,1373,21367,8630,12737,17077,1294,Guerrero,San Luis Acatlán,16.808583,-98.733613,NA,PRD
12053,48501.0,16530.0,4163.0,24605.0,8076.0,16515.0,2260.0,23896.0,8454.0,15432.0,1903.0,31947.0,49449,33743,4517,25149,11418,17419,2423,24300,7976,16324,15706,2094,Guerrero,San Marcos,16.797344,-99.390046,NA,PRD
12054,28009.0,11055.0,1977.0,14254.0,5511.0,8728.0,1073.0,13755.0,5544.0,8194.0,904.0,16922.0,27853,17829,2291,14268,6576,9315,1242,13585,5071,8514,10024,1049,Guerrero,San Miguel Totolapan,18.161267,-100.390821,NA,PRI
12055,104053.0,30939.0,8042.0,53621.0,15193.0,38196.0,4353.0,50432.0,15746.0,34459.0,3689.0,72655.0,108416,79325,9542,57141,25532,42598,5291,51275,14548,36727,29091,4251,Guerrero,Taxco de Alarcón,18.557382,-99.604595,NA,PRI
12056,44079.0,16253.0,3191.0,22346.0,7988.0,14345.0,1696.0,21733.0,8265.0,13456.0,1495.0,27801.0,46812,31223,3929,23819,11151,16131,2151,22993,7901,15092,15589,1778,Guerrero,Tecoanapa,16.988854,-99.260876,NA,PRI
12057,62071.0,18488.0,5627.0,31200.0,8974.0,22201.0,2913.0,30871.0,9514.0,21327.0,2714.0,43528.0,64577,46393,6535,32611,15262,23721,3485,31966,9294,22672,18184,3050,Guerrero,Técpan de Galeana,17.222609,-100.632378,NA,PRI
12058,53769.0,17332.0,5589.0,28327.0,8713.0,19603.0,3022.0,25442.0,8619.0,16805.0,2567.0,36408.0,57377,39527,6202,30452,13448,21432,3375,26925,8830,18095,17850,2827,Guerrero,Teloloapan,18.371809,-99.869573,NA,PRI
12059,30470.0,8928.0,3528.0,15858.0,4339.0,11493.0,1872.0,14612.0,4589.0,9998.0,1656.0,21491.0,31599,23301,3981,16332,7713,12378,2109,15267,4344,10923,8298,1872,Guerrero,Tepecoacuilco de Trujano,18.28699,-99.466694,NA,PRD
12060,13128.0,4502.0,1238.0,6772.0,2290.0,4458.0,646.0,6356.0,2212.0,4130.0,592.0,8588.0,14658,10152,1485,7511,3535,5316,783,7147,2311,4836,4506,702,Guerrero,Tetipac,18.649385,-99.648982,NA,PRI
12061,40058.0,12652.0,2922.0,20689.0,6207.0,14366.0,1565.0,19369.0,6445.0,12806.0,1357.0,27172.0,42653,30060,3555,22343,10136,16084,1917,20310,6334,13976,12593,1638,Guerrero,Tixtla de Guerrero,17.566724,-99.398271,NA,PRI
12062,21306.0,9448.0,1106.0,11115.0,4750.0,6327.0,567.0,10191.0,4698.0,5454.0,539.0,11781.0,22771,13585,1475,12117,5397,7481,767,10654,4550,6104,9186,708,Guerrero,Tlacoachistlahuaca,16.809909,-98.301749,NA,PRI
12063,9967.0,4343.0,678.0,5233.0,2132.0,3087.0,414.0,4734.0,2211.0,2508.0,264.0,5595.0,9753,5923,700,5102,2402,3226,437,4651,1954,2697,3830,263,Guerrero,Tlacoapa,17.259948,-98.748211,NA,PT
12064,11495.0,3197.0,1766.0,5758.0,1522.0,4231.0,910.0,5737.0,1675.0,4059.0,856.0,8290.0,12404,9042,1878,6184,2996,4550,916,6220,1728,4492,3362,962,Guerrero,Tlalchapa,18.408674,-100.478253,NA,PRI
12065,7096.0,2635.0,689.0,3700.0,1307.0,2376.0,351.0,3396.0,1328.0,2055.0,338.0,4431.0,7407,4875,775,3839,1849,2582,399,3568,1275,2293,2532,376,Guerrero,Tlalixtaquilla de Maldonado,17.574484000000002,-98.369862,NA,PRD
12066,81419.0,31032.0,4125.0,42436.0,15400.0,26713.0,2164.0,38983.0,15632.0,23025.0,1961.0,49738.0,87967,56277,4741,46920,20548,31012,2549,41047,15782,25265,31690,2192,Guerrero,Tlapa de Comonfort,17.546949,-98.582138,NA,PRI
12067,21819.0,6650.0,2218.0,11261.0,3226.0,8011.0,1155.0,10558.0,3424.0,7110.0,1063.0,15121.0,21995,15359,2344,11399,5409,8158,1245,10596,3395,7201,6636,1099,Guerrero,Tlapehuala,18.23976,-100.541574,NA,PRI
12068,25712.0,7987.0,2042.0,12625.0,3908.0,8627.0,981.0,13087.0,4079.0,8918.0,1061.0,17545.0,26432,18921,2682,13001,6287,9268,1263,13431,3778,9653,7511,1419,Guerrero,La Unión de Isidoro Montes de Oca,17.982333,-101.805685,NA,PRD
12069,12240.0,4965.0,1060.0,6550.0,2510.0,4024.0,567.0,5690.0,2455.0,3222.0,493.0,7246.0,11726,7323,1127,6348,2750,4115,625,5378,2170,3208,4403,502,Guerrero,Xalpatláhuac,17.470875,-98.606449,NA,PRD
12070,7079.0,2224.0,850.0,3790.0,1105.0,2627.0,412.0,3289.0,1119.0,2113.0,438.0,4740.0,7201,5153,912,3788,1765,2799,439,3413,1059,2354,2048,473,Guerrero,Xochihuehuetlán,17.905639999999998,-98.487661,NA,PRI
12071,28089.0,11112.0,1449.0,14443.0,5583.0,8831.0,723.0,13646.0,5529.0,8083.0,726.0,16914.0,28839,18564,1766,14995,7080,9799,933,13844,5079,8765,10275,833,Guerrero,Xochistlahuaca,16.792424,-98.242467,NA,PNA
12072,10516.0,4572.0,586.0,5479.0,2314.0,3152.0,308.0,5037.0,2258.0,2768.0,278.0,5920.0,11221,6653,639,5844,2737,3554,335,5377,2278,3099,4568,304,Guerrero,Zapotitlán Tablas,17.422887,-98.781709,NA,PRI
12073,18813.0,5727.0,1889.0,9014.0,2755.0,5868.0,927.0,9799.0,2972.0,5731.0,962.0,11599.0,18206,12685,2044,9094,4298,6343,1029,9112,2770,6342,5521,1015,Guerrero,Zirándaro,18.479133,-100.975856,NA,PRI
12074,22587.0,9073.0,1639.0,11837.0,4550.0,7277.0,902.0,10750.0,4523.0,6219.0,737.0,13496.0,22721,14393,1964,12039,5529,7918,1064,10682,4207,6475,8328,900,Guerrero,Zitlala,17.690341,-99.185248,NA,PRI
12075,46158.0,15064.0,2960.0,23524.0,7431.0,16048.0,1555.0,22634.0,7633.0,14957.0,1405.0,31005.0,51316,35599,3659,26397,12127,18649,1986,24919,7969,16950,15717,1673,Guerrero,Eduardo Neri,17.653197,-99.525937,NA,PRI
12076,32792.0,15348.0,1185.0,16722.0,7587.0,9104.0,666.0,16070.0,7761.0,8275.0,519.0,17379.0,36449,20228,1501,18671,8706,10628,833,17778,8178,9600,16221,668,Guerrero,Acatepec,17.325219,-98.910334,NA,PRD
12077,12912.0,4331.0,946.0,6516.0,2118.0,4339.0,487.0,6396.0,2213.0,4122.0,459.0,8461.0,13730,9239,1118,6939,3240,4750,576,6791,2302,4489,4491,542,Guerrero,Marquelia,16.583314,-98.817852,NA,PRD
12078,18778.0,9279.0,1138.0,9833.0,4721.0,5111.0,575.0,8945.0,4558.0,4386.0,563.0,9497.0,18458,9689,1267,9674,4335,5280,688,8784,4375,4409,8769,579,Guerrero,Cochoapa el Grande,17.192967,-98.45528,NA,PRD
12079,15678.0,6995.0,763.0,7935.0,3476.0,4454.0,412.0,7743.0,3519.0,4221.0,351.0,8675.0,17661,10037,885,9004,4279,5195,490,8657,3815,4842,7624,395,Guerrero,José Joaquin de Herrera,17.448726,-99.024388,NA,PRD
12080,7166.0,2482.0,772.0,3561.0,1210.0,2348.0,386.0,3605.0,1272.0,2327.0,386.0,4675.0,7576,5180,850,3757,1761,2587,435,3819,1226,2593,2396,415,Guerrero,Juchitán,16.627071,-98.636714,NA,PRD
12081,10522.0,4438.0,663.0,5447.0,2207.0,3218.0,345.0,5075.0,2231.0,2816.0,318.0,6034.0,11114,6792,732,5933,2571,3749,397,5181,2138,3043,4322,335,Guerrero,Iliatenco,17.045531,-98.685811,NA,PVEM
13001,20077.0,6658.0,1289.0,10408.0,3275.0,7122.0,674.0,9669.0,3383.0,6275.0,615.0,13397.0,21044,14156,1498,10980,5136,7518,769,10064,3426,6638,6888,729,Hidalgo,Acatlán,20.145848,-98.438434,NA,NA
13002,40583.0,15137.0,2032.0,21193.0,7592.0,13488.0,1163.0,19390.0,7545.0,11733.0,869.0,25221.0,43774,27827,2355,22910,10278,15066,1364,20864,8103,12761,15947,991,Hidalgo,Acaxochitlán,20.158605,-98.203252,NA,NA
13003,54299.0,15487.0,3678.0,28558.0,7570.0,20905.0,2042.0,25741.0,7917.0,17744.0,1636.0,38649.0,56429,40728,4426,29854,13581,21962,2434,26575,7809,18766,15701,1992,Hidalgo,Actopan,20.269047,-98.942901,NA,NA
13004,8994.0,2999.0,756.0,4700.0,1532.0,3163.0,427.0,4294.0,1467.0,2826.0,329.0,5989.0,9116,6252,814,4846,2140,3357,461,4270,1375,2895,2864,353,Hidalgo,Agua Blanca de Iturbide,20.349504,-98.356386,NA,NA
13005,17055.0,4630.0,1471.0,8680.0,2244.0,6329.0,728.0,8375.0,2386.0,5881.0,743.0,12210.0,18320,13657,1800,9477,4238,7089,905,8843,2275,6568,4663,895,Hidalgo,Ajacuba,20.092516,-99.122185,NA,NA
13006,18879.0,5311.0,1905.0,9671.0,2621.0,7047.0,1013.0,9208.0,2690.0,6513.0,892.0,13560.0,20332,14684,2228,10517,4904,7712,1197,9815,2843,6972,5648,1031,Hidalgo,Alfajayucan,20.409971,-99.349589,NA,NA
13007,11294.0,3409.0,815.0,5701.0,1641.0,4052.0,394.0,5593.0,1768.0,3820.0,421.0,7872.0,12410,8763,1029,6305,2949,4503,495,6105,1845,4260,3647,534,Hidalgo,Almoloya,19.703333,-98.403333,NA,NA
13008,42563.0,12214.0,2962.0,22204.0,6028.0,16e3,1536.0,20359.0,6186.0,13996.0,1426.0,29996.0,44576,32386,3622,23311,10384,17363,1866,21265,6242,15023,12190,1756,Hidalgo,Apan,19.71,-98.451944,NA,NA
13009,17374.0,5387.0,1085.0,9107.0,2718.0,6355.0,602.0,8267.0,2669.0,5568.0,483.0,11923.0,18807,13158,1223,9856,4477,6991,653,8951,2784,6167,5649,570,Hidalgo,El Arenal,20.221374,-98.911089,NA,NA
13010,26904.0,7497.0,1373.0,13651.0,3723.0,9869.0,672.0,13253.0,3774.0,9425.0,701.0,19294.0,29683,21945,2026,15174,7060,11456,1002,14509,4020,10489,7738,1024,Hidalgo,Atitalaquia,20.059155,-99.221129,NA,NA
13011,19452.0,6068.0,1844.0,10082.0,2983.0,7090.0,983.0,9370.0,3085.0,6278.0,861.0,13368.0,19902,13866,2142,10384,4737,7443,1155,9518,3095,6423,6036,987,Hidalgo,Atlapexco,21.017114,-98.348187,NA,NA
13012,26940.0,8008.0,2111.0,14164.0,3913.0,10221.0,1188.0,12776.0,4095.0,8653.0,923.0,18874.0,27433,19472,2413,14502,6473,10577,1389,12931,4036,8895,7961,1024,Hidalgo,Atotonilco el Grande,20.286878,-98.669024,NA,NA
13013,31078.0,9216.0,1628.0,15885.0,4590.0,11247.0,817.0,15193.0,4626.0,10525.0,811.0,21772.0,38564,27184,2085,19869,9127,14164,1062,18695,5675,13020,11380,1023,Hidalgo,Atotonilco de Tula,20.007767,-99.220191,NA,NA
13014,16962.0,5218.0,1881.0,8767.0,2598.0,6162.0,993.0,8195.0,2620.0,5573.0,888.0,11735.0,17163,12249,2392,8937,4062,6557,1232,8226,2534,5692,4914,1160,Hidalgo,Calnali,20.897178,-98.583532,NA,NA
13015,18427.0,5400.0,1531.0,9508.0,2656.0,6833.0,827.0,8919.0,2744.0,6158.0,704.0,12991.0,18347,13265,1936,9653,4659,7060,1035,8694,2489,6205,5082,901,Hidalgo,Cardonal,20.613389,-99.117069,NA,NA
13016,54500.0,17386.0,3517.0,28607.0,8666.0,19796.0,1893.0,25893.0,8720.0,17028.0,1624.0,36824.0,58301,41065,4213,30585,13766,21954,2323,27716,8605,19111,17236,1890,Hidalgo,Cuautepec de Hinojosa,20.03547,-98.309738,NA,NA
13017,12271.0,3317.0,1292.0,6227.0,1637.0,4589.0,640.0,6044.0,1680.0,4362.0,652.0,8951.0,13789,10012,1617,7206,3371,5255,804,6583,1826,4757,3777,813,Hidalgo,Chapantongo,20.285316,-99.413231,NA,NA
13018,22402.0,7261.0,1961.0,11074.0,3544.0,7507.0,890.0,11328.0,3717.0,7588.0,1071.0,15095.0,23961,16086,2327,12119,5704,8379,1053,11842,4135,7707,7875,1274,Hidalgo,Chapulhuacán,21.159418,-98.904588,NA,NA
13019,17436.0,5226.0,1188.0,8945.0,2530.0,6398.0,597.0,8491.0,2696.0,5773.0,591.0,12171.0,18169,12914,1485,9234,4377,6744,759,8935,2765,6170,5255,726,Hidalgo,Chilcuautla,20.330831,-99.231693,NA,NA
13020,2800.0,696.0,438.0,1479.0,338.0,1138.0,228.0,1321.0,358.0,960.0,210.0,2098.0,2667,2019,457,1429,664,1106,252,1238,325,913,648,205,Hidalgo,Eloxochitlán,20.746718,-98.809141,NA,NA
13021,13357.0,3931.0,951.0,7035.0,1971.0,5045.0,496.0,6322.0,1960.0,4342.0,455.0,9387.0,14825,10724,1273,7824,3483,5756,670,7001,2033,4968,4101,603,Hidalgo,Emiliano Zapata,19.657008,-98.547416,NA,NA
13022,13830.0,3976.0,1045.0,7091.0,1964.0,5099.0,547.0,6739.0,2012.0,4701.0,498.0,9800.0,14693,10707,1313,7636,3544,5723,721,7057,2073,4984,3986,592,Hidalgo,Epazoyucan,20.018022,-98.636209,NA,NA
13023,33901.0,9560.0,2326.0,17699.0,4656.0,13e3,1260.0,16202.0,4904.0,11256.0,1066.0,24256.0,35872,26464,2892,18767,8390,14177,1541,17105,4818,12287,9408,1351,Hidalgo,Francisco I. Madero,20.245186,-99.088894,NA,NA
13024,17182.0,5559.0,1235.0,8921.0,2700.0,6217.0,668.0,8261.0,2859.0,5393.0,567.0,11610.0,17728,12404,1523,9365,4006,6682,782,8363,2641,5722,5324,741,Hidalgo,Huasca de Ocampo,20.203611,-98.577615,NA,NA
13025,22621.0,6512.0,3091.0,11691.0,3173.0,8505.0,1763.0,10930.0,3339.0,7580.0,1328.0,16085.0,21244,15540,3603,11047,5102,8273,2057,10197,2930,7267,5704,1546,Hidalgo,Huautla,21.031387,-98.286821,NA,NA
13026,12779.0,4498.0,957.0,6484.0,2182.0,4295.0,526.0,6295.0,2316.0,3975.0,431.0,8270.0,13986,9135,1393,7310,3447,4871,749,6676,2412,4264,4851,644,Hidalgo,Huazalingo,20.980303,-98.507748,NA,NA
